{"type": "FeatureCollection", "features": [{"type": "Feature", "geometry": {"type": "Point", "coordinates": [23.586, 43.15025]}, "properties": {"ocid": "ocds-e82gsb-550619", "title": "Извършване на ремонтни дейности на покрив и вътрешни помещения в сградата на СУ „Христо Ботев“ гр. Козлодуй", "value": 116778, "region": "Враца", "locality": "гр. Козлодуй", "buyer": "СРЕДНО УЧИЛИЩЕ \"ХРИСТО БОТЕВ\"", "supplier": "НИКИ СТРОЙ 17 ЕООД", "risk": 0.045, "expected_days": 62, "overrun_days": 0, "is_repair": 1}}, {"type": "Feature", "geometry": {"type": "Point", "coordinates": [26.49, 42.5005]}, "properties": {"ocid": "ocds-e82gsb-516746", "title": "„Изготвяне на инвестиционни проекти за благоустрояване на терени, основни ремонти на улици и паркови алеи, собственост н", "value": 4315, "region": "Ямбол", "locality": "гр.Ямбол", "buyer": "ОБЩИНА ЯМБОЛ", "supplier": "Реджеп Топал", "risk": 0.904, "expected_days": 49, "overrun_days": 61, "is_repair": 1}}, {"type": "Feature", "geometry": {"type": "Point", "coordinates": [23.41825, 42.65225]}, "properties": {"ocid": "ocds-e82gsb-519538", "title": "Извършване на ремонтно - възстановителни работи (РВР) за подобряване на проводимостта на съществуващи 35 хидромелиоратив", "value": 1637251, "region": "София (столица)", "locality": "гр. София", "buyer": "НАПОИТЕЛНИ СИСТЕМИ ЕАД", "supplier": "ЛЮНИК ЕООД", "risk": 0.478, "expected_days": 62, "overrun_days": 0, "is_repair": 1}}, {"type": "Feature", "geometry": {"type": "Point", "coordinates": [24.226, 42.0925]}, "properties": {"ocid": "ocds-e82gsb-532637", "title": "„Снегопочистване и зимно поддържане на улична мрежа и общинска пътна мрежа, разположена на територията на община Димитро", "value": 32211, "region": "Пазарджик", "locality": "гр. Димитровград", "buyer": "ОБЩИНА ДИМИТРОВГРАД", "supplier": "ЕКО ТРАДЕКС ГРУП АД", "risk": 0.017, "expected_days": 49, "overrun_days": 0, "is_repair": 1}}, {"type": "Feature", "geometry": {"type": "Point", "coordinates": [24.82325, 42.101]}, "properties": {"ocid": "ocds-e82gsb-535092", "title": ",,СМР по изграждане на централна климатична инсталация на етаж 4 в източното крило на Хирургичен блок, сграда с идентифи", "value": 41547, "region": "Пловдив", "locality": "гр. Пловдив", "buyer": "УНИВЕРСИТЕТСКА МНОГОПРОФИЛНА БОЛНИЦА ЗА АКТИВНО ЛЕЧЕНИЕ \"СВЕТИ ГЕОРГИ\" ЕАД", "supplier": "ИНДЖОВСТРОЙ ЕООД", "risk": 0.054, "expected_days": 62, "overrun_days": 0, "is_repair": 0}}, {"type": "Feature", "geometry": {"type": "Point", "coordinates": [23.24775, 42.8125]}, "properties": {"ocid": "ocds-e82gsb-532186", "title": "Извършване на строително-монтажни работи (СМР) с цел смяна на дограма в поделение „Дружба“ на Столичен автотранспорт ЕАД", "value": 714170, "region": "София (столица)", "locality": "гр. София", "buyer": "СТОЛИЧЕН АВТОТРАНСПОРТ ЕАД", "supplier": "ТЕХНО - ЕНЕРДЖИ ООД", "risk": 0.388, "expected_days": 62, "overrun_days": 0, "is_repair": 0}}, {"type": "Feature", "geometry": {"type": "Point", "coordinates": [25.43775, 41.56875]}, "properties": {"ocid": "ocds-e82gsb-537366", "title": "Упражняване на строителен надзор по време на СМР нa обекти: „Основен ремонт на общински пътища и Реконструкция и рехабил", "value": 25000, "region": "Кърджали", "locality": "гр.Момчилград", "buyer": "ОБЩИНА МОМЧИЛГРАД", "supplier": "ЕТ АЛИС - ДИМИТЪР ЧАВДАРОВ", "risk": 0.003, "expected_days": 49, "overrun_days": 0, "is_repair": 1}}, {"type": "Feature", "geometry": {"type": "Point", "coordinates": [25.93075, 43.948]}, "properties": {"ocid": "ocds-e82gsb-523954", "title": "Зимно поддържане и снегопочистване на общинска пътна мрежа и улиците в гр. Две могили и населените места на територията ", "value": 86, "region": "Русе", "locality": "гр.Две могили", "buyer": "ОБЩИНА ДВЕ МОГИЛИ", "supplier": "ГЕСПЕРИ ЕООД", "risk": 0.897, "expected_days": 49, "overrun_days": 3, "is_repair": 1}}, {"type": "Feature", "geometry": {"type": "Point", "coordinates": [23.2575, 42.67825]}, "properties": {"ocid": "ocds-e82gsb-519328", "title": "Упражняване на строителен надзор при извършване на ремонтно - възстановителни работи (РВР) за подобряване на проводимост", "value": 41659, "region": "София (столица)", "locality": "гр. София", "buyer": "НАПОИТЕЛНИ СИСТЕМИ ЕАД", "supplier": "Krasimira Avgustova", "risk": 0.382, "expected_days": 49, "overrun_days": 0, "is_repair": 1}}, {"type": "Feature", "geometry": {"type": "Point", "coordinates": [23.4335, 42.70325]}, "properties": {"ocid": "ocds-e82gsb-457817", "title": "Избор на изпълнители за инженеринг (проектиране, авторски надзор и изпълнение на СМР/СРР) за енергийно обновяване на мно", "value": 958672, "region": "София (столица)", "locality": "гр. София", "buyer": "РАЙОН \"ИЛИНДЕН\"", "supplier": "ТАНДЕМ 1 ЕООД", "risk": 0.729, "expected_days": 62, "overrun_days": 151, "is_repair": 0}}, {"type": "Feature", "geometry": {"type": "Point", "coordinates": [27.94425, 43.453]}, "properties": {"ocid": "ocds-e82gsb-224005", "title": "„Почистване на улици, тротоари и места за обществено ползване на територията на Община град Добрич“", "value": 2556459, "region": "Добрич", "locality": "Добрич", "buyer": "ОБЩИНА ГРАД ДОБРИЧ", "supplier": "УЕЙСТ СОЛЮШЪНС БЪЛГАРИЯ ЕООД", "risk": 0.722, "expected_days": 49, "overrun_days": 0, "is_repair": 1}}, {"type": "Feature", "geometry": {"type": "Point", "coordinates": [27.37975, 42.4705]}, "properties": {"ocid": "ocds-e82gsb-460627", "title": "Определяне на изпълнител за поддържане на озеленени площи за широко и ограничено обществено ползване, включително изграж", "value": 67500, "region": "Бургас", "locality": "гр. Бургас", "buyer": "ОБЩИНА БУРГАС", "supplier": "ДРУЖЕСТВО ПО ЗЗД \"ЦЕНТЪР - ВДХ\"", "risk": 0.267, "expected_days": 62, "overrun_days": 0, "is_repair": 0}}, {"type": "Feature", "geometry": {"type": "Point", "coordinates": [24.821, 42.096]}, "properties": {"ocid": "ocds-e82gsb-514816", "title": "Изграждане на сгради и околно пространство на обекти за резиденти грижи за пълнолетни лица с интелектуални затруднения в", "value": 520168, "region": "Пловдив", "locality": "гр. Карлово", "buyer": "ОБЩИНА КАРЛОВО", "supplier": "РОТО ИНЖЕНЕРИНГ ЕООД", "risk": 0.05, "expected_days": 62, "overrun_days": 0, "is_repair": 0}}, {"type": "Feature", "geometry": {"type": "Point", "coordinates": [23.32175, 43.401]}, "properties": {"ocid": "ocds-e82gsb-530229", "title": "„Зимно снегопочистване на община Вършец за зимен сезон 2025 - 2026 т.“, разделена на две самостоятелно обособени позиции", "value": 25564, "region": "Монтана", "locality": "гр.Вършец", "buyer": "ОБЩИНА ВЪРШЕЦ", "supplier": "Мегаинвест-холд ЕООД", "risk": 0.062, "expected_days": 49, "overrun_days": 0, "is_repair": 1}}, {"type": "Feature", "geometry": {"type": "Point", "coordinates": [22.8685, 43.90075]}, "properties": {"ocid": "ocds-e82gsb-538016", "title": "„Зимно поддържане и снегопочистване на общински пътища и улици на територията на Община Белоградчик за 2026 г.", "value": 58542, "region": "Видин", "locality": "гр.Белоградчик", "buyer": "ОБЩИНА БЕЛОГРАДЧИК", "supplier": "ПЪТНО ПОДДЪРЖАНЕ - БЕЛОГРАДЧИК ЕООД ЕООД", "risk": 0.058, "expected_days": 49, "overrun_days": 0, "is_repair": 1}}, {"type": "Feature", "geometry": {"type": "Point", "coordinates": [24.80925, 41.62375]}, "properties": {"ocid": "ocds-e82gsb-550969", "title": "„Извършване на текущ ремонт на коритото на плувен басейн, съблекални, душове и санитарни помещения към тях и текущ ремон", "value": 151473, "region": "Смолян", "locality": "гр.Велинград", "buyer": "ОБЩИНА ВЕЛИНГРАД", "supplier": "Делчев Инженеринг ООД", "risk": 0.026, "expected_days": 62, "overrun_days": 0, "is_repair": 1}}, {"type": "Feature", "geometry": {"type": "Point", "coordinates": [23.42975, 42.78375]}, "properties": {"ocid": "ocds-e82gsb-527161", "title": "Ремонт на клиника „КИТ” в МБАЛ-София-ВМА", "value": 1532987, "region": "София (столица)", "locality": "София", "buyer": "Военномедицинска академия", "supplier": "ХИДРОСТРОЙ АД", "risk": 0.101, "expected_days": 62, "overrun_days": 0, "is_repair": 1}}, {"type": "Feature", "geometry": {"type": "Point", "coordinates": [26.64875, 43.254]}, "properties": {"ocid": "ocds-e82gsb-416446", "title": "Инженеринг – проектиране, СМР и авторски надзор за обекти по 4 обособени позиции", "value": 42764, "region": "Търговище", "locality": "гр. Попово", "buyer": "ОБЩИНА ПОПОВО", "supplier": "ТЕКОМ ИНВЕСТ ЕООД", "risk": 0.888, "expected_days": 62, "overrun_days": 70, "is_repair": 0}}, {"type": "Feature", "geometry": {"type": "Point", "coordinates": [23.40225, 42.79]}, "properties": {"ocid": "ocds-e82gsb-527193", "title": "Ремонт на клиника „Хирургия” в МБАЛ-Варна-ВМА", "value": 1275505, "region": "София (столица)", "locality": "София", "buyer": "Военномедицинска академия", "supplier": "ТЕХНО - ЕНЕРДЖИ ООД", "risk": 0.531, "expected_days": 62, "overrun_days": 0, "is_repair": 1}}, {"type": "Feature", "geometry": {"type": "Point", "coordinates": [24.7125, 42.2045]}, "properties": {"ocid": "ocds-e82gsb-537733", "title": "„Направа на нови и ремонт на тротоари с бетонова настилка от сулфатоустойчив бетон или тротоарни плочи, бетонови площадк", "value": 161909, "region": "Пловдив", "locality": "гр. Пловдив", "buyer": "ОБЩИНА ПЛОВДИВ - РАЙОН \"ТРАКИЯ\"", "supplier": "ЗАПРЯНОВИ - 03 ООД", "risk": 0.279, "expected_days": 62, "overrun_days": 0, "is_repair": 1}}, {"type": "Feature", "geometry": {"type": "Point", "coordinates": [27.80375, 43.2575]}, "properties": {"ocid": "ocds-e82gsb-396645", "title": "„Осъществяване на авторски надзор по време на строителството за обект „Основен ремонт на сградите на КСУВХ\r „Гергана“ за", "value": 4639, "region": "Варна", "locality": "гр.Варна", "buyer": "ОБЩИНА ВАРНА", "supplier": "ПРОИНВЕСТ ЕООД", "risk": 0.342, "expected_days": 49, "overrun_days": 0, "is_repair": 1}}, {"type": "Feature", "geometry": {"type": "Point", "coordinates": [25.6285, 42.47225]}, "properties": {"ocid": "ocds-e82gsb-487316", "title": "\"Натрошаване на инертни отпадъци, получени при ремонтни работи, генерирани от населението на община Казанлък\"", "value": 29825, "region": "Стара Загора", "locality": "гр.Казанлък", "buyer": "ОБЩИНА КАЗАНЛЪК", "supplier": "БРИГАДА ЕООД", "risk": 0.107, "expected_days": 49, "overrun_days": 0, "is_repair": 1}}, {"type": "Feature", "geometry": {"type": "Point", "coordinates": [27.9955, 43.208]}, "properties": {"ocid": "ocds-e82gsb-550863", "title": "„Зимно поддържане на пътища, улици и булеварди на територията на Община Варна за зимен сезон 2025 г./2026 г., по обособе", "value": 189515, "region": "Варна", "locality": "гр.Варна", "buyer": "ОБЩИНА ВАРНА", "supplier": "ХИДРОСТРОЙ АД", "risk": 0.151, "expected_days": 49, "overrun_days": 0, "is_repair": 1}}, {"type": "Feature", "geometry": {"type": "Point", "coordinates": [23.408, 42.6855]}, "properties": {"ocid": "ocds-e82gsb-409466", "title": "„ПРЕУСТРОЙСТВО НА СТАР ХРАНИТЕЛЕН БЛОК В УНИВЕРСАЛЕН УЧЕБЕН КОРПУС“", "value": 818013, "region": "София (столица)", "locality": "София", "buyer": "Национална Гвардейска Част", "supplier": "ГРАДИВ 77 ЕООД", "risk": 0.256, "expected_days": 62, "overrun_days": 0, "is_repair": 0}}, {"type": "Feature", "geometry": {"type": "Point", "coordinates": [22.71975, 42.391]}, "properties": {"ocid": "ocds-e82gsb-452432", "title": "„Ремонт на открити спортни площадки в ОУ „Неофит Рилски“, гр. Дупница, общ. Дупница“", "value": 62388, "region": "Кюстендил", "locality": "гр.Дупница", "buyer": "ОСНОВНО УЧИЛИЩЕ \"НЕОФИТ РИЛСКИ\"", "supplier": "СПА БИЛД ЕООД", "risk": 0.095, "expected_days": 62, "overrun_days": 0, "is_repair": 1}}, {"type": "Feature", "geometry": {"type": "Point", "coordinates": [23.382, 42.605]}, "properties": {"ocid": "ocds-e82gsb-541144", "title": "Ремонт на „Централна стерилизация” - I етап в МБАЛ-София-ВМА", "value": 890734, "region": "София (столица)", "locality": "София", "buyer": "Военномедицинска академия", "supplier": "ХИДРОСТРОЙ АД", "risk": 0.435, "expected_days": 62, "overrun_days": 0, "is_repair": 1}}, {"type": "Feature", "geometry": {"type": "Point", "coordinates": [27.95875, 43.31175]}, "properties": {"ocid": "ocds-e82gsb-517614", "title": "„Рехабилитация, модернизация и изграждане на интелигентна система за управление и мониторинг на системата за външно изку", "value": 1255735, "region": "Варна", "locality": "гр.Варна", "buyer": "ОБЩИНА ВАРНА", "supplier": "Лайт В", "risk": 0.848, "expected_days": 62, "overrun_days": 61, "is_repair": 1}}, {"type": "Feature", "geometry": {"type": "Point", "coordinates": [23.372, 42.767]}, "properties": {"ocid": "ocds-e82gsb-513238", "title": "„Извършване на строително-ремонтни дейности за изграждане на асансьор в сградата на 105. СРЕДНО УЧИЛИЩЕ „АТАНАС ДАЛЧЕВ“", "value": 39877, "region": "София (столица)", "locality": "гр.София", "buyer": "105 СРЕДНО УЧИЛИЩЕ \"АТАНАС ДАЛЧЕВ\"", "supplier": "ТИДЕКС ЕООД", "risk": 0.267, "expected_days": 62, "overrun_days": 0, "is_repair": 1}}, {"type": "Feature", "geometry": {"type": "Point", "coordinates": [25.561, 43.15]}, "properties": {"ocid": "ocds-e82gsb-535238", "title": "“Доставка и монтаж на резервни части, консумативи и принадлежности, както и техническо обслужване и ремонт на автомобили", "value": 127822, "region": "Велико Търново", "locality": "гр. Свищов", "buyer": "ОБЩИНА СВИЩОВ", "supplier": "ЕТ ПОЛЕТ - 90 - МАРИАН ДЖАНОВ", "risk": 0.036, "expected_days": 21, "overrun_days": 0, "is_repair": 1}}, {"type": "Feature", "geometry": {"type": "Point", "coordinates": [25.85275, 43.75875]}, "properties": {"ocid": "ocds-e82gsb-510776", "title": "„Упражняване на строителен надзор по време на изпълнение на СМР за Рехабилитация и/или реконструкция на участъци от общи", "value": 32500, "region": "Русе", "locality": "гр.Борово", "buyer": "ОБЩИНА БОРОВО", "supplier": "ТЕСТ КОНСУЛТ 44 ЕООД", "risk": 0.09, "expected_days": 49, "overrun_days": 0, "is_repair": 1}}, {"type": "Feature", "geometry": {"type": "Point", "coordinates": [24.77025, 42.161]}, "properties": {"ocid": "ocds-e82gsb-90128", "title": "Проектиране и изпълнение на СМР в рамките на проект \"Подобряване на енергийната ефективност на многофамилни жилищни сгра", "value": 400399, "region": "Пловдив", "locality": "гр. Пловдив", "buyer": "ОБЩИНА ПЛОВДИВ", "supplier": "\" ЕКОДИН \" ЕООД", "risk": 0.805, "expected_days": 62, "overrun_days": 58, "is_repair": 0}}, {"type": "Feature", "geometry": {"type": "Point", "coordinates": [23.27325, 43.31425]}, "properties": {"ocid": "ocds-e82gsb-550836", "title": "Изпълнение на строително-монтажни работи за изграждане на STEM помещения ОУ „Иван Вазов“ гр. Берковица", "value": 18771, "region": "Монтана", "locality": "гр.Берковица", "buyer": "ТРЕТО ОСНОВНО УЧИЛИЩЕ \"ИВАН ВАЗОВ\"", "supplier": "ЕВРОПАВИМЕНТИ ПЛЮС ООД", "risk": 0.067, "expected_days": 62, "overrun_days": 0, "is_repair": 0}}, {"type": "Feature", "geometry": {"type": "Point", "coordinates": [22.655, 42.34025]}, "properties": {"ocid": "ocds-e82gsb-500663", "title": "„Инженеринг – проектиране, изпълнение на строително-монтажни работи и упражняване на авторски надзор за обект „Подкрепа ", "value": 964143, "region": "Кюстендил", "locality": "гр.Бобов дол", "buyer": "ОБЩИНА БОБОВ ДОЛ", "supplier": "МАРБЪЛ СТРОЙ ЕООД", "risk": 0.121, "expected_days": 62, "overrun_days": 0, "is_repair": 0}}, {"type": "Feature", "geometry": {"type": "Point", "coordinates": [24.68975, 43.2525]}, "properties": {"ocid": "ocds-e82gsb-441655", "title": "Избор на изпълнител за извършване на СМР по проект: „Вътрешно преустройство, реконструкция, пристрояване и обзавеждане н", "value": 1408470, "region": "Ловеч", "locality": "гр. Угърчин", "buyer": "ОБЩИНА УГЪРЧИН", "supplier": "НИВЕЛ СТРОЙ ЕООД", "risk": 0.059, "expected_days": 62, "overrun_days": 0, "is_repair": 1}}, {"type": "Feature", "geometry": {"type": "Point", "coordinates": [23.13075, 43.42125]}, "properties": {"ocid": "ocds-e82gsb-495686", "title": "ИЗГОТВЯНЕ НА ИНВЕСТИЦИОННИ ПРОЕКТИ ЗА АВАРИЙНО ВЪЗСТАНОВЯВАНЕ НА УЛИЦИ НА ТЕРИТОРИЯТА НА ОБЩИНА БОЙЧИНОВЦИ", "value": 94589, "region": "Монтана", "locality": "гр.Бойчиновци", "buyer": "ОБЩИНА БОЙЧИНОВЦИ", "supplier": "ПРОЕКТИНФРА ЕООД", "risk": 0.03, "expected_days": 49, "overrun_days": 0, "is_repair": 1}}, {"type": "Feature", "geometry": {"type": "Point", "coordinates": [24.6075, 43.12725]}, "properties": {"ocid": "ocds-e82gsb-443736", "title": "„Организация и управление на проект № BG-RRP-11.010-0046 „Вътрешно преустройство, реконструкция, пристрояване и обзавежд", "value": 40903, "region": "Ловеч", "locality": "гр. Угърчин", "buyer": "ОБЩИНА УГЪРЧИН", "supplier": "БУЛДАР КОНСУЛТИНГ ЕООД", "risk": 0.197, "expected_days": 49, "overrun_days": 0, "is_repair": 1}}, {"type": "Feature", "geometry": {"type": "Point", "coordinates": [25.53275, 43.18375]}, "properties": {"ocid": "ocds-e82gsb-389950", "title": "„Изпълнение на строително-монтажни работи на обект: „Реконструкция, обновяване и модернизация на съоръжения и паркова ср", "value": 235138, "region": "Велико Търново", "locality": "гр. Павликени", "buyer": "ОБЩИНА ПАВЛИКЕНИ", "supplier": "Стройгруп - Трявна ЕООД", "risk": 0.004, "expected_days": 62, "overrun_days": 0, "is_repair": 1}}, {"type": "Feature", "geometry": {"type": "Point", "coordinates": [27.82, 43.16425]}, "properties": {"ocid": "ocds-e82gsb-538712", "title": "Снегопочистване на общинска пътна мрежа на Община Вълчи дол за 2025/2026 година", "value": 10739, "region": "Варна", "locality": "гр.Вълчи дол", "buyer": "ОБЩИНА ВЪЛЧИ ДОЛ", "supplier": "HASAN HASAN", "risk": 0.553, "expected_days": 49, "overrun_days": 0, "is_repair": 1}}, {"type": "Feature", "geometry": {"type": "Point", "coordinates": [27.15925, 44.025]}, "properties": {"ocid": "ocds-e82gsb-545303", "title": "„РЕМОНТ НА БЪЛГАРСКИ И ВНОСНИ ПОМПЕНИ АГРЕГАТИ ЗА ПИТЕЙНА И/ИЛИ ОТПАДЪЧНА ВОДА”", "value": 50600, "region": "Силистра", "locality": "гр. Силистра", "buyer": "ВОДОСНАБДЯВАНЕ И КАНАЛИЗАЦИЯ ООД", "supplier": "ЕЛЕКТРА ПОМП ООД", "risk": 0.05, "expected_days": 49, "overrun_days": 0, "is_repair": 1}}, {"type": "Feature", "geometry": {"type": "Point", "coordinates": [27.96575, 43.221]}, "properties": {"ocid": "ocds-e82gsb-549776", "title": "„Осъществяване на авторски надзор по време на строителството на обект: „Основен ремонт на ул. \"Отец Паисий\", по плана на", "value": 1252, "region": "Варна", "locality": "гр.Варна", "buyer": "ОБЩИНА ВАРНА", "supplier": "ИНЖКОНСУЛТПРОЕКТ ООД", "risk": 0.265, "expected_days": 49, "overrun_days": 0, "is_repair": 1}}, {"type": "Feature", "geometry": {"type": "Point", "coordinates": [25.31775, 42.84575]}, "properties": {"ocid": "ocds-e82gsb-535846", "title": "“Частичен ремонт на покрив сектор административен блок на МБАЛ\"Д-р Тота Венкова\" АД, гр.Габрово ”", "value": 55210, "region": "Габрово", "locality": "гр. Габрово", "buyer": "МНОГОПРОФИЛНА БОЛНИЦА ЗА АКТИВНО ЛЕЧЕНИЕ \"Д-Р ТОТА ВЕНКОВА\" АД", "supplier": "ИВ БИЛД БГ ЕООД", "risk": 0.047, "expected_days": 62, "overrun_days": 0, "is_repair": 1}}, {"type": "Feature", "geometry": {"type": "Point", "coordinates": [23.402, 42.718]}, "properties": {"ocid": "ocds-e82gsb-477652", "title": "Диагностика, калибриране и ремонт при необходимост на еталони, контролно-измервателна апаратура и принадлежности", "value": 9167, "region": "София (столица)", "locality": "гр. София", "buyer": "ДЪРЖАВНО ПРЕДПРИЯТИЕ \"РЪКОВОДСТВО НА ВЪЗДУШНОТО ДВИЖЕНИЕ\" ТПП", "supplier": "РЕА ТРЕЙДИНГ 2000 ЕООД", "risk": 0.877, "expected_days": 49, "overrun_days": 18, "is_repair": 1}}, {"type": "Feature", "geometry": {"type": "Point", "coordinates": [23.36825, 42.7785]}, "properties": {"ocid": "ocds-e82gsb-361791", "title": "Осигуряване на самолетни билети за превоз по въздух на пътници и багаж при служебни пътувания в страната и чужбина за ну", "value": 255645, "region": "София (столица)", "locality": "гр.София", "buyer": "МИНИСТЕРСТВО НА ФИНАНСИТЕ", "supplier": "БЪЛГАРИЯ ЕЪР – ПОСОКА – КЕТИ", "risk": 0.332, "expected_days": 49, "overrun_days": 0, "is_repair": 1}}, {"type": "Feature", "geometry": {"type": "Point", "coordinates": [23.06675, 42.0385]}, "properties": {"ocid": "ocds-e82gsb-479324", "title": "Техническа поддръжка и ремонт на климатична техника за нуждите на РДСП-Благоевград и ДСП на територията на областта", "value": 2316, "region": "Благоевград", "locality": "гр.Благоевград", "buyer": "РЕГИОНАЛНА ДИРЕКЦИЯ \"СОЦИАЛНО ПОДПОМАГАНЕ\" - БЛАГОЕВГРАД", "supplier": "АЙФЕСТ ЕООД", "risk": 0.034, "expected_days": 49, "overrun_days": 0, "is_repair": 1}}, {"type": "Feature", "geometry": {"type": "Point", "coordinates": [26.397, 43.653]}, "properties": {"ocid": "ocds-e82gsb-540573", "title": "„Извършване на обществен превоз на пътници по автобусна линия Цар Калоян-Разград от Областната транспортна схема на Обла", "value": 22934, "region": "Разград", "locality": "гр.Цар Калоян", "buyer": "ОБЩИНА ЦАР КАЛОЯН", "supplier": "ИНТРА СИТИ БЪС ЕООД", "risk": 0.079, "expected_days": 49, "overrun_days": 0, "is_repair": 1}}, {"type": "Feature", "geometry": {"type": "Point", "coordinates": [25.8735, 43.862]}, "properties": {"ocid": "ocds-e82gsb-551277", "title": "„Зимно поддържане на общински път RSE 1135 / III – 2001, Ветово – Глоджево/-Смирненски-граница общ.(Ветово-Русе)-Тетово ", "value": 18826, "region": "Русе", "locality": "гр.Ветово", "buyer": "ОБЩИНА ВЕТОВО", "supplier": "ЕТ ЕМИН ЗАКИФ - С", "risk": 0.157, "expected_days": 49, "overrun_days": 0, "is_repair": 1}}, {"type": "Feature", "geometry": {"type": "Point", "coordinates": [23.10675, 43.346]}, "properties": {"ocid": "ocds-e82gsb-524554", "title": "„УПРАЖНЯВАНЕ НА НЕЗАВИСИМ СТРОИТЕЛЕН НАДЗОР НА ОБЕКТ: „ОСНОВЕН РЕМОНТ И РЕКОНСТРУКЦИЯ НА УЛИЧНА МРЕЖА НА ТЕРИТОРИЯТА НА ", "value": 32722, "region": "Монтана", "locality": "гр.Бойчиновци", "buyer": "ОБЩИНА БОЙЧИНОВЦИ", "supplier": "ГРАДИАКТ КОНСУЛТ ООД", "risk": 0.055, "expected_days": 49, "overrun_days": 0, "is_repair": 1}}, {"type": "Feature", "geometry": {"type": "Point", "coordinates": [27.916, 43.52475]}, "properties": {"ocid": "ocds-e82gsb-536036", "title": "„Извършване на обществен превоз на пътници по автобусни линии от областна транспортна схема, съгласно утвърдени маршрутн", "value": 320518, "region": "Добрич", "locality": "с. Крушари", "buyer": "ОБЩИНА КРУШАРИ", "supplier": "ПЪТНИЧЕСКИ ПРЕВОЗИ ЕООД", "risk": 0.231, "expected_days": 49, "overrun_days": 0, "is_repair": 1}}, {"type": "Feature", "geometry": {"type": "Point", "coordinates": [23.31225, 42.79925]}, "properties": {"ocid": "ocds-e82gsb-422487", "title": "ТЕКУЩ РЕМОНТ НА ПОКРИВ И ПОМЕЩЕНИЯ НА КОРПУС А НА „ХИМИКОТЕХНОЛОГИЧЕН И МЕТАЛУРГИЧЕН УНИВЕРСИТЕТ“ – СОФИЯ", "value": 1001814, "region": "София (столица)", "locality": "гр.София", "buyer": "ХИМИКОТЕХНОЛОГИЧЕН И МЕТАЛУРГИЧЕН УНИВЕРСИТЕТ (ХТМУ)", "supplier": "ТЕХНО - ЕНЕРДЖИ ООД", "risk": 0.283, "expected_days": 62, "overrun_days": 0, "is_repair": 1}}, {"type": "Feature", "geometry": {"type": "Point", "coordinates": [24.70675, 42.0875]}, "properties": {"ocid": "ocds-e82gsb-278466", "title": "Реконструкция, пристрояване, преустройство и промяна предназначение на сграда с ид. 56784.510.1051.4 и част от сграда с ", "value": 3936875, "region": "Пловдив", "locality": "гр. Пловдив", "buyer": "УНИВЕРСИТЕТСКА МНОГОПРОФИЛНА БОЛНИЦА ЗА АКТИВНО ЛЕЧЕНИЕ \"СВЕТИ ГЕОРГИ\" ЕАД", "supplier": "АРХ СИТИСТРОЙ ЕООД", "risk": 0.141, "expected_days": 62, "overrun_days": 0, "is_repair": 1}}, {"type": "Feature", "geometry": {"type": "Point", "coordinates": [24.6345, 43.15625]}, "properties": {"ocid": "ocds-e82gsb-529463", "title": "“Възстановяване на улични настилки след отстранени ВиК аварии и извършени реконструкции на ВиК мрежата експлоатирана от ", "value": 152990, "region": "Ловеч", "locality": "гр. Ловеч", "buyer": "В И К АД", "supplier": "СИРС - СТОЯНОВА ООД", "risk": 0.23, "expected_days": 62, "overrun_days": 0, "is_repair": 1}}, {"type": "Feature", "geometry": {"type": "Point", "coordinates": [23.26825, 42.65825]}, "properties": {"ocid": "ocds-e82gsb-71462", "title": "“Извършване на строително-монтажни работи за нуждите на СПЕШНИ ОТДЕЛЕНИЯ НА БОЛНИЦИ на територията на Северозападен райо", "value": 257914, "region": "София (столица)", "locality": "гр.София", "buyer": "МИНИСТЕРСТВО НА ЗДРАВЕОПАЗВАНЕТО", "supplier": "МЕДИЯ ИНТЕР ГРУП ЕООД", "risk": 0.319, "expected_days": 62, "overrun_days": 0, "is_repair": 0}}, {"type": "Feature", "geometry": {"type": "Point", "coordinates": [27.13575, 44.159]}, "properties": {"ocid": "ocds-e82gsb-545086", "title": "„Извършване на снегопочистване на общинската пътна мрежа и улиците на населените места в Община Главиница в състояние за", "value": 7020, "region": "Силистра", "locality": "гр. Главиница", "buyer": "ОБЩИНА ГЛАВИНИЦА", "supplier": "ЕРДЖАН ЕСМАН РЕДЖЕБ", "risk": 0.008, "expected_days": 49, "overrun_days": 0, "is_repair": 1}}, {"type": "Feature", "geometry": {"type": "Point", "coordinates": [24.828, 41.61]}, "properties": {"ocid": "ocds-e82gsb-551341", "title": "Инженеринг (проектиране, строителство и авторски надзор) за обект: „Изграждане на нов водопровод за питейни нужди по ул.", "value": 200887, "region": "Смолян", "locality": "гр.Велинград", "buyer": "ОБЩИНА ВЕЛИНГРАД", "supplier": "ВЕРА СТРОЙ ЕООД", "risk": 0.035, "expected_days": 62, "overrun_days": 0, "is_repair": 0}}, {"type": "Feature", "geometry": {"type": "Point", "coordinates": [25.652, 42.521]}, "properties": {"ocid": "ocds-e82gsb-536680", "title": "„ТЕКУЩ РЕМОНТ ПОКРИВ НА АДМИНИСТРАТИВНА ЧАСТ И ФИЗКУЛТУРЕН САЛОН НА ПРОФИЛИРАНА ПРИРОДОМАТЕМАТИЧЕСКА ГИМНАЗИЯ „ГЕО МИЛЕВ", "value": 52000, "region": "Стара Загора", "locality": "гр.Стара Загора", "buyer": "ПРОФИЛИРАНА ПРИРОДОМАТЕМАТИЧЕСКА ГИМНАЗИЯ \"ГЕО МИЛЕВ\"", "supplier": "ДАКА ИНВЕСТ ЕООД", "risk": 0.272, "expected_days": 62, "overrun_days": 0, "is_repair": 1}}, {"type": "Feature", "geometry": {"type": "Point", "coordinates": [23.364, 42.58925]}, "properties": {"ocid": "ocds-e82gsb-479333", "title": "Извършване на строително-ремонтни дейности в домове за стари хора, на територията на София-град“ по четири обособени поз", "value": 4257745, "region": "София (столица)", "locality": "гр.София", "buyer": "СТОЛИЧНА ОБЩИНА", "supplier": "ЦЕРБ ЕАД - ЦЕРБ БИЛД ЕООД", "risk": 0.852, "expected_days": 62, "overrun_days": 28, "is_repair": 1}}, {"type": "Feature", "geometry": {"type": "Point", "coordinates": [27.9755, 43.24525]}, "properties": {"ocid": "ocds-e82gsb-378758", "title": "Инженеринг (проектиране, авторски надзор и строителство) за обект: „Реконструкция и доизграждане на вътрешна водоснабдит", "value": 7684285, "region": "Варна", "locality": "гр. Варна", "buyer": "ВОДОСНАБДЯВАНЕ И КАНАЛИЗАЦИЯ - ВАРНА ООД", "supplier": "ДЗЗД \"ДОБРОТИЦА 2016\"", "risk": 0.192, "expected_days": 62, "overrun_days": 0, "is_repair": 1}}, {"type": "Feature", "geometry": {"type": "Point", "coordinates": [22.99175, 44.03775]}, "properties": {"ocid": "ocds-e82gsb-550513", "title": "„Придобиване на Мотометачка за нуждите на ОП \"Чистота, озеленяване и благоустройство\", общ. Видин“", "value": 39777, "region": "Видин", "locality": "гр.Видин", "buyer": "ОБЩИНА ВИДИН", "supplier": "БИ ЕМ ЛИЗИНГ-ТРЕЙД АД", "risk": 0.661, "expected_days": 21, "overrun_days": 0, "is_repair": 1}}, {"type": "Feature", "geometry": {"type": "Point", "coordinates": [22.9495, 43.92375]}, "properties": {"ocid": "ocds-e82gsb-536278", "title": "„Зимно поддържане за експлоатационен сезон 2026 г. на общинската пътната мрежа в община Димово” по обособени позиции", "value": 60076, "region": "Видин", "locality": "гр.Димово", "buyer": "ОБЩИНА ДИМОВО", "supplier": "ПЪТНО ПОДДЪРЖАНЕ - БЕЛОГРАДЧИК ЕООД ЕООД", "risk": 0.037, "expected_days": 49, "overrun_days": 0, "is_repair": 1}}, {"type": "Feature", "geometry": {"type": "Point", "coordinates": [25.3585, 41.63325]}, "properties": {"ocid": "ocds-e82gsb-542761", "title": "ПЕРИОДИЧНА ПОКУПКА НА БЕНЗИН А - 95, БЕНЗИН А - 98, ДИЗЕЛОВО ГОРИВО И ГАЗ ПРОПАН - БУТАН ЗА НУЖДИТЕ НА АВТОМОБИЛНИЯ ПАРК", "value": 80000, "region": "Кърджали", "locality": "гр.Кърджали", "buyer": "РЕГИОНАЛНА ДИРЕКЦИЯ ПО ГОРИТЕ - КЪРДЖАЛИ", "supplier": "ПЕТРОЛ АД", "risk": 0.007, "expected_days": 21, "overrun_days": 0, "is_repair": 1}}, {"type": "Feature", "geometry": {"type": "Point", "coordinates": [27.76525, 43.59425]}, "properties": {"ocid": "ocds-e82gsb-520761", "title": "Текущ ремонт на обекти в селата Паскалево, Царевец, Божурово, Росеново и Козлодуйци, община Добричка", "value": 97275, "region": "Добрич", "locality": "град Добрич", "buyer": "ОБЩИНА ДОБРИЧКА", "supplier": "ДИДИ ЛЕС ЕООД", "risk": 0.096, "expected_days": 62, "overrun_days": 0, "is_repair": 1}}, {"type": "Feature", "geometry": {"type": "Point", "coordinates": [23.23725, 43.49825]}, "properties": {"ocid": "ocds-e82gsb-550089", "title": "Подготвителни работи за изграждане на STEM център в Трето ОУ Иван Вазов, гр. Берковица", "value": 6077, "region": "Монтана", "locality": "гр. Берковица", "buyer": "ТРЕТО ОСНОВНО УЧИЛИЩЕ \"ИВАН ВАЗОВ\"", "supplier": "ЕВРОПАВИМЕНТИ ПЛЮС ООД", "risk": 0.158, "expected_days": 62, "overrun_days": 0, "is_repair": 0}}, {"type": "Feature", "geometry": {"type": "Point", "coordinates": [27.53525, 42.50225]}, "properties": {"ocid": "ocds-e82gsb-539712", "title": "„Доставка на твърди горива /пелети/ за отопление за нуждите на ОУ „Елин Пелин“ гр. Бургас за учебната 2025/2026 год. и у", "value": 99000, "region": "Бургас", "locality": "гр.Бургас", "buyer": "ОСНОВНО УЧИЛИЩЕ \"ЕЛИН ПЕЛИН\"", "supplier": "ГАМИТРЕЙД 2 ЕООД", "risk": 0.355, "expected_days": 62, "overrun_days": 0, "is_repair": 0}}, {"type": "Feature", "geometry": {"type": "Point", "coordinates": [24.685, 42.22275]}, "properties": {"ocid": "ocds-e82gsb-536471", "title": ",,СМР по изграждане на ОВК система в архивно помещение в сградата на Болнична кухня на УМБАЛ \"Свети Георги\" ЕАД.", "value": 24177, "region": "Пловдив", "locality": "гр. Пловдив", "buyer": "УНИВЕРСИТЕТСКА МНОГОПРОФИЛНА БОЛНИЦА ЗА АКТИВНО ЛЕЧЕНИЕ \"СВЕТИ ГЕОРГИ\" ЕАД", "supplier": "ИНДЖОВСТРОЙ ЕООД", "risk": 0.025, "expected_days": 62, "overrun_days": 0, "is_repair": 0}}, {"type": "Feature", "geometry": {"type": "Point", "coordinates": [27.8675, 43.265]}, "properties": {"ocid": "ocds-e82gsb-526265", "title": "„Зимно поддържане на пътища, улици и булеварди на територията на Община Варна за зимен сезон 2025 г./2026 г., по обособе", "value": 215080, "region": "Варна", "locality": "гр.Варна", "buyer": "ОБЩИНА ВАРНА", "supplier": "ЗЕБРА ООД", "risk": 0.362, "expected_days": 49, "overrun_days": 0, "is_repair": 1}}, {"type": "Feature", "geometry": {"type": "Point", "coordinates": [23.308, 42.77525]}, "properties": {"ocid": "ocds-e82gsb-549945", "title": "Превоз на личен състав на военно формированиe 24620 – Свобода и военно формированиe 28880 – Белене от състава на Сухопът", "value": 214827, "region": "София (столица)", "locality": "София", "buyer": "СУХОПЪТНИ ВОЙСКИ - ВОЕННО ФОРМИРОВАНИЕ 22450", "supplier": "ЖЕС ГРУП ООД", "risk": 0.679, "expected_days": 49, "overrun_days": 36, "is_repair": 1}}, {"type": "Feature", "geometry": {"type": "Point", "coordinates": [23.2675, 42.65375]}, "properties": {"ocid": "ocds-e82gsb-462972", "title": "Обявление за възложена поръчка по договор № СОА24-ДГ55-932/24.12.2024 г.", "value": 3734534, "region": "София (столица)", "locality": "гр.София", "buyer": "СТОЛИЧНА ОБЩИНА", "supplier": "СОФЕКОСТРОЙ ЕАД", "risk": 0.53, "expected_days": 62, "overrun_days": 0, "is_repair": 0}}, {"type": "Feature", "geometry": {"type": "Point", "coordinates": [28.01075, 43.10675]}, "properties": {"ocid": "ocds-e82gsb-531495", "title": "„Изпълнение на текущи ремонти на офис № 23 и санитарен възел от офис сграда с идентификатор 10135.5506.863.3 и офис №110", "value": 34379, "region": "Варна", "locality": "гр.Варна", "buyer": "ИНСТИТУТ ПО ОКЕАНОЛОГИЯ", "supplier": "СТАН ГРУП 24 ЕООД", "risk": 0.858, "expected_days": 62, "overrun_days": 176, "is_repair": 1}}, {"type": "Feature", "geometry": {"type": "Point", "coordinates": [23.34125, 42.82]}, "properties": {"ocid": "ocds-e82gsb-466919", "title": "„Текущи и основни ремонти на сгради, постройки, прилежащи площи и инсталации на обекти на Национална агенция за приходит", "value": 255645, "region": "София (столица)", "locality": "гр.София", "buyer": "НАЦИОНАЛНА АГЕНЦИЯ ЗА ПРИХОДИТЕ", "supplier": "ЕЛЕКТРОЛУКС ТАБАКОВ И СИНОВЕ ООД", "risk": 0.767, "expected_days": 62, "overrun_days": 15, "is_repair": 1}}, {"type": "Feature", "geometry": {"type": "Point", "coordinates": [23.22975, 42.6855]}, "properties": {"ocid": "ocds-e82gsb-500116", "title": "„Избор на изпълнители за инженеринг (проектиране, авторски надзор и изпълнение на СМР/СРР) за енергийно обновяване на мн", "value": 175424, "region": "София (столица)", "locality": "гр. София", "buyer": "РАЙОН \"ИЛИНДЕН\"", "supplier": "ДЗЗД „БИЛДИНГ -ИНВЕСТМЪНТ“", "risk": 0.088, "expected_days": 62, "overrun_days": 0, "is_repair": 0}}, {"type": "Feature", "geometry": {"type": "Point", "coordinates": [23.22725, 42.8125]}, "properties": {"ocid": "ocds-e82gsb-515682", "title": "Осигуряване на самолетни билети и хотелски настанявания при служебни пътувания в страната и чужбина на служителите на НЕ", "value": 204516, "region": "София (столица)", "locality": "гр. София", "buyer": "НАЦИОНАЛНА ЕЛЕКТРИЧЕСКА КОМПАНИЯ ЕАД", "supplier": "РИН КОНСУЛТ ЕООД", "risk": 0.323, "expected_days": 49, "overrun_days": 0, "is_repair": 1}}, {"type": "Feature", "geometry": {"type": "Point", "coordinates": [23.345, 42.594]}, "properties": {"ocid": "ocds-e82gsb-527218", "title": "Текущи ремонти на сграден фонд и съоръжения на Военномедицинска академия и подчинените и структури", "value": 278600, "region": "София (столица)", "locality": "София", "buyer": "Военномедицинска академия", "supplier": "ТЕХНО - ЕНЕРДЖИ ООД", "risk": 0.327, "expected_days": 62, "overrun_days": 0, "is_repair": 1}}, {"type": "Feature", "geometry": {"type": "Point", "coordinates": [23.0365, 41.97625]}, "properties": {"ocid": "ocds-e82gsb-520606", "title": "„Реконструкция и рехабилитация на улична мрежа в община Гоце Делчев по обособени позиции“", "value": 1646937, "region": "Благоевград", "locality": "гр.Гоце Делчев", "buyer": "ОБЩИНА ГОЦЕ ДЕЛЧЕВ", "supplier": "БКС ЕООД", "risk": 0.058, "expected_days": 62, "overrun_days": 0, "is_repair": 1}}, {"type": "Feature", "geometry": {"type": "Point", "coordinates": [23.48875, 42.60125]}, "properties": {"ocid": "ocds-e82gsb-529600", "title": "\"ЗИМНО ПОДДЪРЖАНЕ - СНЕГОПОЧИСТВАНЕ И ОПЕСЪЧАВАНЕ НА УЛИЧНАТА И ОБЩИНСКАТА ПЪТНА МРЕЖА НА ТЕРИТОРИЯТА НА ОБЩИНА БОЖУРИЩЕ", "value": 6135, "region": "София област", "locality": "гр.Божурище", "buyer": "ОБЩИНА БОЖУРИЩЕ", "supplier": "МИКО-93 ТРАНС ЕООД", "risk": 0.292, "expected_days": 49, "overrun_days": 0, "is_repair": 1}}, {"type": "Feature", "geometry": {"type": "Point", "coordinates": [27.90525, 43.087]}, "properties": {"ocid": "ocds-e82gsb-515704", "title": "Инженеринг - проектиране, строителството и авторски надзор за енергийно обновяване на многофамилни жилищни сгради в град", "value": 419449, "region": "Варна", "locality": "гр.Девня", "buyer": "ОБЩИНА ДЕВНЯ", "supplier": "ДЕВА 85 ЕООД", "risk": 0.1, "expected_days": 62, "overrun_days": 0, "is_repair": 0}}, {"type": "Feature", "geometry": {"type": "Point", "coordinates": [23.49575, 43.094]}, "properties": {"ocid": "ocds-e82gsb-356513", "title": "РЕКОНСТРУКЦИЯ И РЕХАБИЛИТАЦИЯ НА СИСТЕМАТА ЗА ВЪНШНО ИЗКУСТВЕНО ОСВЕТЛЕНИЕ В ГР. КОЗЛОДУЙ", "value": 1885673, "region": "Враца", "locality": "гр. Козлодуй", "buyer": "ОБЩИНА КОЗЛОДУЙ", "supplier": "2Р - БЪЛГАРИЯ ЕООД", "risk": 0.031, "expected_days": 62, "overrun_days": 0, "is_repair": 1}}, {"type": "Feature", "geometry": {"type": "Point", "coordinates": [23.2095, 42.09025]}, "properties": {"ocid": "ocds-e82gsb-423681", "title": "Сметосъбиране и сметоизвозване на неопасни отпадъци (съгласно издаден Регистрационен документ) от населените места в Общ", "value": 3150297, "region": "Благоевград", "locality": "гр. Разлог", "buyer": "ОБЩИНА РАЗЛОГ", "supplier": "БЛАГОУСТРОЙСТВО И ЧИСТОТА-РАЗЛОГ ЕООД", "risk": 0.34, "expected_days": 49, "overrun_days": 0, "is_repair": 1}}, {"type": "Feature", "geometry": {"type": "Point", "coordinates": [23.2125, 42.79625]}, "properties": {"ocid": "ocds-e82gsb-541022", "title": "„Доставка на различни видове хартия за офиса, вкл. безконечна хартия, картони, факс хартия, терморолки за нуждите на Аге", "value": 3526, "region": "София (столица)", "locality": "гр.София", "buyer": "АГЕНЦИЯ \"ПЪТНА ИНФРАСТРУКТУРА\"", "supplier": "МУЛТИКО 92 ООД", "risk": 0.173, "expected_days": 21, "overrun_days": 0, "is_repair": 1}}, {"type": "Feature", "geometry": {"type": "Point", "coordinates": [23.512, 42.52275]}, "properties": {"ocid": "ocds-e82gsb-550032", "title": "„Инженеринг – проектиране, изпълнение на CMP и авторски надзор на обект: „Инсталиране на фотоволтаични системи (ФЕЦ) до ", "value": 164376, "region": "София област", "locality": "гр.Драгоман", "buyer": "ОБЩИНА ДРАГОМАН", "supplier": "ЕфектХ АД", "risk": 0.061, "expected_days": 62, "overrun_days": 0, "is_repair": 0}}, {"type": "Feature", "geometry": {"type": "Point", "coordinates": [23.17925, 41.99125]}, "properties": {"ocid": "ocds-e82gsb-444676", "title": "„Въвеждане на мерки за енергийна ефективност, реконструкция и модернизация на система за улично осветление в община Гоце", "value": 445890, "region": "Благоевград", "locality": "гр.Гоце Делчев", "buyer": "ОБЩИНА ГОЦЕ ДЕЛЧЕВ", "supplier": "ЕфектХ АД", "risk": 0.153, "expected_days": 62, "overrun_days": 0, "is_repair": 1}}, {"type": "Feature", "geometry": {"type": "Point", "coordinates": [23.21525, 42.63375]}, "properties": {"ocid": "ocds-e82gsb-484497", "title": "„Осигуряване на самолетни билети за превоз по въздух на пътници и багаж при служебни пътувания в страната и чужбина“, об", "value": 35790, "region": "София (столица)", "locality": "гр. София", "buyer": "МИНИСТЕРСТВО НА ЕНЕРГЕТИКАТА", "supplier": "БЪЛГАРИЯ ЕЪР – ПОСОКА – КЕТИ", "risk": 0.277, "expected_days": 49, "overrun_days": 0, "is_repair": 1}}, {"type": "Feature", "geometry": {"type": "Point", "coordinates": [25.93225, 43.73425]}, "properties": {"ocid": "ocds-e82gsb-546380", "title": "„Зимно поддържане и снегопочистване на общински пътища, републикански пътища в чертите на град Бяла и улици в населените", "value": 10225, "region": "Русе", "locality": "гр.Бяла", "buyer": "ОБЩИНА БЯЛА", "supplier": "БЕСКУ ЕООД", "risk": 0.229, "expected_days": 49, "overrun_days": 0, "is_repair": 1}}, {"type": "Feature", "geometry": {"type": "Point", "coordinates": [25.3335, 42.9915]}, "properties": {"ocid": "ocds-e82gsb-543864", "title": "Доставка на Дизелово гориво за зареждане на бензиностанция, предназначено за нуждите на ОП \"Благоустрояване\"", "value": 200937, "region": "Габрово", "locality": "гр. Габрово", "buyer": "ОБЩИНА ГАБРОВО", "supplier": "М-ФОРМА ООД", "risk": 0.022, "expected_days": 21, "overrun_days": 0, "is_repair": 1}}, {"type": "Feature", "geometry": {"type": "Point", "coordinates": [23.0045, 41.97825]}, "properties": {"ocid": "ocds-e82gsb-533731", "title": "„Зимно поддържане и снегопочистване на общински пътища на територията на Община Банско” за Обособена позиция 1: Зимно по", "value": 10225, "region": "Благоевград", "locality": "гр.Банско", "buyer": "ОБЩИНА БАНСКО", "supplier": "ЮСИ-65 ООД", "risk": 0.036, "expected_days": 49, "overrun_days": 0, "is_repair": 1}}, {"type": "Feature", "geometry": {"type": "Point", "coordinates": [24.7105, 42.0645]}, "properties": {"ocid": "ocds-e82gsb-537439", "title": ",,СМР по изграждане на централна климатична инсталация на етаж 5 в източното крило на Хирургичен блок, сграда с идентифи", "value": 41928, "region": "Пловдив", "locality": "гр. Пловдив", "buyer": "УНИВЕРСИТЕТСКА МНОГОПРОФИЛНА БОЛНИЦА ЗА АКТИВНО ЛЕЧЕНИЕ \"СВЕТИ ГЕОРГИ\" ЕАД", "supplier": "ИНДЖОВСТРОЙ ЕООД", "risk": 0.089, "expected_days": 62, "overrun_days": 0, "is_repair": 0}}, {"type": "Feature", "geometry": {"type": "Point", "coordinates": [26.925, 43.3565]}, "properties": {"ocid": "ocds-e82gsb-441022", "title": "Изграждане на пристройка -физкултурен салон към съществуваща учебна сграда към III ОУ \"Димитър Благоев\"УПИ I кв№115 гр.Ш", "value": 628478, "region": "Шумен", "locality": "гр.Шумен", "buyer": "3-ТО ОСНОВНО УЧИЛИЩЕ \"ДИМИТЪР БЛАГОЕВ\"", "supplier": "КРАСБИВАЛ ООД", "risk": 0.969, "expected_days": 62, "overrun_days": 123, "is_repair": 0}}, {"type": "Feature", "geometry": {"type": "Point", "coordinates": [23.31025, 42.749]}, "properties": {"ocid": "ocds-e82gsb-523683", "title": "„Ремонт на инфраструктурни обекти на територията на Район Лозенец - СО“ с шест подобекта", "value": 66205, "region": "София (столица)", "locality": "гр.София", "buyer": "РАЙОН \"ЛОЗЕНЕЦ\"", "supplier": "ТРЕЙС ГРУП ХОЛД АД", "risk": 0.042, "expected_days": 62, "overrun_days": 0, "is_repair": 1}}, {"type": "Feature", "geometry": {"type": "Point", "coordinates": [25.306, 42.8255]}, "properties": {"ocid": "ocds-e82gsb-531479", "title": "Изграждане на нови сгради за реализирането на три броя социални услуги от типа \"Резидентна грижа за пълнолетни лица с ин", "value": 1555599, "region": "Габрово", "locality": "гр. Севлиево", "buyer": "ОБЩИНА СЕВЛИЕВО", "supplier": "ИНТЕР СТРОЙ ГРУП ЕООД", "risk": 0.053, "expected_days": 62, "overrun_days": 0, "is_repair": 0}}, {"type": "Feature", "geometry": {"type": "Point", "coordinates": [24.865, 42.018]}, "properties": {"ocid": "ocds-e82gsb-533063", "title": "„Текущ ремонт на улична мрежа /изкърпване/ на територията на Община Пловдив – Район „Тракия“", "value": 225000, "region": "Пловдив", "locality": "гр. Пловдив", "buyer": "ОБЩИНА ПЛОВДИВ - РАЙОН \"ТРАКИЯ\"", "supplier": "ПЪТИНЖЕНЕРИНГ ООД", "risk": 0.313, "expected_days": 62, "overrun_days": 0, "is_repair": 1}}, {"type": "Feature", "geometry": {"type": "Point", "coordinates": [23.2665, 42.779]}, "properties": {"ocid": "ocds-e82gsb-513371", "title": "„Предоставяне на технически услуги по отстраняване на аварии извън текущите ремонти в административни сгради на НАП“, ра", "value": 11248, "region": "София (столица)", "locality": "гр.София", "buyer": "НАЦИОНАЛНА АГЕНЦИЯ ЗА ПРИХОДИТЕ", "supplier": "КА ПРОЕКТ - 2 ЕООД", "risk": 0.476, "expected_days": 49, "overrun_days": 0, "is_repair": 1}}, {"type": "Feature", "geometry": {"type": "Point", "coordinates": [22.99125, 41.9025]}, "properties": {"ocid": "ocds-e82gsb-517398", "title": "„Изпълнение на строеж за изграждане на клетка 3 и обособяване на клетка 4 на територията на РДНО – на общините Гоце Делч", "value": 1716021, "region": "Благоевград", "locality": "гр.Гоце Делчев", "buyer": "ОБЩИНА ГОЦЕ ДЕЛЧЕВ", "supplier": "МИТ И КО ЕООД", "risk": 0.03, "expected_days": 62, "overrun_days": 0, "is_repair": 0}}, {"type": "Feature", "geometry": {"type": "Point", "coordinates": [23.00425, 43.91725]}, "properties": {"ocid": "ocds-e82gsb-535214", "title": "Ремонт на покрив на сграда център за настаняване от семеен тип за пълнолетни лица с психични разстройства в УПИ I-294, к", "value": 158041, "region": "Видин", "locality": "с.Бойница", "buyer": "ОБЩИНА БОЙНИЦА", "supplier": "АВ БИЛД ЕООД", "risk": 0.325, "expected_days": 62, "overrun_days": 0, "is_repair": 1}}, {"type": "Feature", "geometry": {"type": "Point", "coordinates": [24.86175, 42.1935]}, "properties": {"ocid": "ocds-e82gsb-527736", "title": "„Възлагане на обществен превоз на пътници по утвърдени маршрутни разписания за автобусните линии от общинска транспортна", "value": 1022583, "region": "Пловдив", "locality": "гр.Първомай", "buyer": "ОБЩИНА ПЪРВОМАЙ", "supplier": "Едитурс 99 ЕООД", "risk": 0.136, "expected_days": 49, "overrun_days": 0, "is_repair": 1}}, {"type": "Feature", "geometry": {"type": "Point", "coordinates": [23.26375, 42.74225]}, "properties": {"ocid": "ocds-e82gsb-536190", "title": "Ремонт на ет. 7 и ет. 8 в БПЛР-Банкя-ВМА", "value": 724009, "region": "София (столица)", "locality": "София", "buyer": "Военномедицинска академия", "supplier": "КАЛИСТРАТОВ ГРУП АД", "risk": 0.188, "expected_days": 62, "overrun_days": 0, "is_repair": 1}}, {"type": "Feature", "geometry": {"type": "Point", "coordinates": [27.987, 43.208]}, "properties": {"ocid": "ocds-e82gsb-434486", "title": "Покана 58 „Упражняване на строителен надзор, изготвяне на окончателен доклад и изготвяне на технически паспорт на обект ", "value": 33141, "region": "Варна", "locality": "гр.Варна", "buyer": "ОБЩИНА ВАРНА", "supplier": "ИНЖКОНСУЛТПРОЕКТ ООД", "risk": 0.745, "expected_days": 49, "overrun_days": 0, "is_repair": 1}}, {"type": "Feature", "geometry": {"type": "Point", "coordinates": [27.84425, 43.27075]}, "properties": {"ocid": "ocds-e82gsb-399366", "title": "Основен ремонт на сградите на КСУВХ Гергана за реформиране в социална услуга Резидентна грижа за възрастни\r хора в надтр", "value": 21304, "region": "Варна", "locality": "гр.Варна", "buyer": "ОБЩИНА ВАРНА", "supplier": "АСТРА КОНСУЛТ ЕООД", "risk": 0.392, "expected_days": 49, "overrun_days": 0, "is_repair": 1}}, {"type": "Feature", "geometry": {"type": "Point", "coordinates": [23.3035, 42.596]}, "properties": {"ocid": "ocds-e82gsb-379570", "title": "„Обслужване на горелки, котли и газови инсталации за природен газ и пропан бутан в ПСПВ Бистрица, ПСПВ Панчарево и СПСОВ", "value": 153387, "region": "София (столица)", "locality": "гр. София", "buyer": "СОФИЙСКА ВОДА АД", "supplier": "КИКИ-ПП ЕООД", "risk": 0.146, "expected_days": 49, "overrun_days": 0, "is_repair": 1}}, {"type": "Feature", "geometry": {"type": "Point", "coordinates": [25.715, 43.1735]}, "properties": {"ocid": "ocds-e82gsb-529678", "title": "Доставка на фабрично нов пътнически автобус за нуждите на учебното заведение", "value": 73881, "region": "Велико Търново", "locality": "гр.Горна Оряховица", "buyer": "ПРОФЕСИОНАЛНА ГИМНАЗИЯ ПО ХРАНИТЕЛНИ ТЕХНОЛОГИИ \"ПРОФ. Д-Р АСЕН ЗЛАТАРОВ\"", "supplier": "АВТОМОБИЛИТЕ ООД", "risk": 0.044, "expected_days": 21, "overrun_days": 0, "is_repair": 1}}, {"type": "Feature", "geometry": {"type": "Point", "coordinates": [25.34575, 41.759]}, "properties": {"ocid": "ocds-e82gsb-551099", "title": "Доставка дизелово гориво и бензин за нуждите на автопарка на Община Момчилград за период от 3 години с място на доставка", "value": 154533, "region": "Кърджали", "locality": "гр.Момчилград", "buyer": "ОБЩИНА МОМЧИЛГРАД", "supplier": "НЕА ГРУП 2015 ООД", "risk": 0.021, "expected_days": 21, "overrun_days": 0, "is_repair": 1}}, {"type": "Feature", "geometry": {"type": "Point", "coordinates": [23.323, 43.51925]}, "properties": {"ocid": "ocds-e82gsb-364421", "title": "„Избор на изпълнител за предоставяне на консултантски услуги, свързани с последващо управление и отчитане на проект: “Ре", "value": 47038, "region": "Монтана", "locality": "гр.Бойчиновци", "buyer": "ОБЩИНА БОЙЧИНОВЦИ", "supplier": "КОРЕКТ КОНСУЛТИНГ ГРУП ООД", "risk": 0.042, "expected_days": 49, "overrun_days": 0, "is_repair": 1}}, {"type": "Feature", "geometry": {"type": "Point", "coordinates": [27.535, 42.62375]}, "properties": {"ocid": "ocds-e82gsb-536703", "title": "Извършване на строително-монтажни работи /СМР/ на обект: Благоустройство и модернизация на пристанище „Мичурин“ в УПИ V,", "value": 1153612, "region": "Бургас", "locality": "гр. Царево", "buyer": "ОБЩИНА ЦАРЕВО", "supplier": "КОНСТРОЛ ЕООД", "risk": 0.492, "expected_days": 62, "overrun_days": 0, "is_repair": 1}}, {"type": "Feature", "geometry": {"type": "Point", "coordinates": [23.23175, 42.57575]}, "properties": {"ocid": "ocds-e82gsb-169964", "title": "„Проектиране, основен ремонт и преустройство на част от имот публична държавна собственост, находящ се в град София, бул", "value": 8373824, "region": "София (столица)", "locality": "гр.София", "buyer": "ВИСШ СЪДЕБЕН СЪВЕТ", "supplier": "ГЛАВБОЛГАРСТРОЙ АД", "risk": 0.792, "expected_days": 62, "overrun_days": 0, "is_repair": 1}}, {"type": "Feature", "geometry": {"type": "Point", "coordinates": [23.394, 42.802]}, "properties": {"ocid": "ocds-e82gsb-329762", "title": "„Услуги по ремонт и поддържане на телефонни централи и апарати, с подмяна на резервни части (без допълнително оборудване", "value": 19940, "region": "София (столица)", "locality": "гр.София", "buyer": "НАЦИОНАЛНА АГЕНЦИЯ ЗА ПРИХОДИТЕ", "supplier": "ТЕКО АД", "risk": 0.785, "expected_days": 49, "overrun_days": 0, "is_repair": 1}}, {"type": "Feature", "geometry": {"type": "Point", "coordinates": [25.43525, 42.91325]}, "properties": {"ocid": "ocds-e82gsb-551558", "title": "Аварийно възстановяване и укрепване на каменен мост в с. Горна Росица, общ. Севлиево", "value": 97323, "region": "Габрово", "locality": "гр. Севлиево", "buyer": "ОБЩИНА СЕВЛИЕВО", "supplier": "ПЕТРОВ 2016 ЕООД", "risk": 0.005, "expected_days": 62, "overrun_days": 0, "is_repair": 0}}, {"type": "Feature", "geometry": {"type": "Point", "coordinates": [23.45225, 42.457]}, "properties": {"ocid": "ocds-e82gsb-551598", "title": "„Упражняване на авторски надзор по време на строителството на обект: „Реконструкция на ул. „Шести септември“ от о.т. 72 ", "value": 5409, "region": "София област", "locality": "гр.Драгоман", "buyer": "ОБЩИНА ДРАГОМАН", "supplier": "ГВ ИНЖЕНЕРИНГ ЕООД", "risk": 0.026, "expected_days": 49, "overrun_days": 0, "is_repair": 1}}, {"type": "Feature", "geometry": {"type": "Point", "coordinates": [24.81425, 43.25]}, "properties": {"ocid": "ocds-e82gsb-436413", "title": "„Извършване на обществена услуга за превоз на пътници по междуселищни автобусни линии от Републиканската транспортна схе", "value": 0, "region": "Ловеч", "locality": "гр. Угърчин", "buyer": "ОБЩИНА УГЪРЧИН", "supplier": "KALINKA GENOVSKA", "risk": 0.022, "expected_days": 49, "overrun_days": 0, "is_repair": 1}}, {"type": "Feature", "geometry": {"type": "Point", "coordinates": [27.86175, 43.1435]}, "properties": {"ocid": "ocds-e82gsb-543490", "title": "„Осъществяване на авторски надзор по време на строителството на обекти: Основен ремонт на Детска ясла №8 \"Щурче\", въвежд", "value": 6135, "region": "Варна", "locality": "гр.Варна", "buyer": "ОБЩИНА ВАРНА", "supplier": "АГОРА 66 ООД", "risk": 0.012, "expected_days": 49, "overrun_days": 0, "is_repair": 1}}, {"type": "Feature", "geometry": {"type": "Point", "coordinates": [23.29825, 42.7995]}, "properties": {"ocid": "ocds-e82gsb-419879", "title": "Асфалтиране на източната лента на ул. \"Флора Кънева\" от бул. \"Филип Кутев\" до адрес № 11", "value": 35170, "region": "София (столица)", "locality": "гр.София", "buyer": "РАЙОН \"ЛОЗЕНЕЦ\"", "supplier": "ТРЕЙС ГРУП ХОЛД АД", "risk": 0.095, "expected_days": 62, "overrun_days": 0, "is_repair": 1}}, {"type": "Feature", "geometry": {"type": "Point", "coordinates": [25.763, 42.3455]}, "properties": {"ocid": "ocds-e82gsb-513811", "title": "„Инженеринг - проектиране, строително - монтажни работи и упражняване на авторски надзор по време на строителството на о", "value": 954786, "region": "Стара Загора", "locality": "гр.Раднево", "buyer": "ОБЩИНА РАДНЕВО", "supplier": "ТЕХНО СТРОЙ БЪЛГАРИЯ ООД", "risk": 0.233, "expected_days": 62, "overrun_days": 0, "is_repair": 0}}, {"type": "Feature", "geometry": {"type": "Point", "coordinates": [27.897, 43.31575]}, "properties": {"ocid": "ocds-e82gsb-399125", "title": "„Консултантски услуги по управление на проект № BG-RRP-11.010-0009 \"Реформиране на Дом за стари хора\r \"Гергана\" чрез изв", "value": 66467, "region": "Варна", "locality": "гр.Варна", "buyer": "ОБЩИНА ВАРНА", "supplier": "ДИА ВАРНА", "risk": 0.178, "expected_days": 49, "overrun_days": 0, "is_repair": 1}}, {"type": "Feature", "geometry": {"type": "Point", "coordinates": [24.40625, 42.2785]}, "properties": {"ocid": "ocds-e82gsb-394304", "title": "„Инженеринг (проектиране, авторски надзор, строителство и доставка на оборудване) за вътрешна водопроводна и канализацио", "value": 12495257, "region": "Пазарджик", "locality": "гр. Хасково", "buyer": "ВОДОСНАБДЯВАНЕ И КАНАЛИЗАЦИЯ ЕООД", "supplier": "ВИК Хасково", "risk": 0.058, "expected_days": 62, "overrun_days": 0, "is_repair": 0}}, {"type": "Feature", "geometry": {"type": "Point", "coordinates": [22.8935, 43.879]}, "properties": {"ocid": "ocds-e82gsb-550977", "title": "„Предоставяне на консултантски услуги по чл. 166, ал. 1 от Закона за устройство на територията при изпълнението на обект", "value": 4838, "region": "Видин", "locality": "гр.Видин", "buyer": "ОБЩИНА ВИДИН", "supplier": "АРТСТРОЙ. И. ИВАНОВ ЕООД", "risk": 0.069, "expected_days": 49, "overrun_days": 0, "is_repair": 1}}, {"type": "Feature", "geometry": {"type": "Point", "coordinates": [23.26625, 42.649]}, "properties": {"ocid": "ocds-e82gsb-472337", "title": "„Ремонт на навигационно оборудване в обхвата на Клон – ТП „Пристанище Варна“", "value": 153387, "region": "София (столица)", "locality": "гр. София", "buyer": "ПРИСТАНИЩНА ИНФРАСТРУКТУРА ДП", "supplier": "АЛФОРИ МЕРИТАЙМ ЕООД", "risk": 0.218, "expected_days": 21, "overrun_days": 0, "is_repair": 1}}, {"type": "Feature", "geometry": {"type": "Point", "coordinates": [24.628, 41.55225]}, "properties": {"ocid": "ocds-e82gsb-527806", "title": "Избор на изпълнител за зимно поддържане и снегопочистване на общинската пътна мрежа и населени места в Община Велинград ", "value": 197189, "region": "Смолян", "locality": "гр.Велинград", "buyer": "ОБЩИНА ВЕЛИНГРАД", "supplier": "ТРАНСМЕТАЛ ЕООД", "risk": 0.015, "expected_days": 49, "overrun_days": 0, "is_repair": 1}}, {"type": "Feature", "geometry": {"type": "Point", "coordinates": [23.326, 42.628]}, "properties": {"ocid": "ocds-e82gsb-538404", "title": "Ремонт на помещения на скенер в МБАЛ-София-ВМА", "value": 115901, "region": "София (столица)", "locality": "София", "buyer": "Военномедицинска академия", "supplier": "ТЕХНО - ЕНЕРДЖИ ООД", "risk": 0.226, "expected_days": 62, "overrun_days": 0, "is_repair": 1}}, {"type": "Feature", "geometry": {"type": "Point", "coordinates": [23.4455, 42.437]}, "properties": {"ocid": "ocds-e82gsb-506438", "title": "\"Текущ ремонт на класни стаи в СУ \"Васил Левски\", гр. Елин Пелин", "value": 46611, "region": "София област", "locality": "гр.Елин Пелин", "buyer": "СРЕДНО УЧИЛИЩЕ \"ВАСИЛ ЛЕВСКИ\"", "supplier": "ОН ДЕТАЙЛС ЕООД", "risk": 0.159, "expected_days": 62, "overrun_days": 0, "is_repair": 1}}, {"type": "Feature", "geometry": {"type": "Point", "coordinates": [23.44, 42.8055]}, "properties": {"ocid": "ocds-e82gsb-469423", "title": "„Изпълнение на строително – монтажни работи (СМР) за изграждане на училищна STEM среда в среда в 34. ОУ „Стою Шишков“", "value": 35842, "region": "София (столица)", "locality": "гр.София", "buyer": "34-то ОСНОВНО УЧИЛИЩЕ \"СТОЮ ШИШКОВ\"", "supplier": "ДК ИНФРА ИНВЕСТ ЕООД", "risk": 0.477, "expected_days": 62, "overrun_days": 0, "is_repair": 0}}, {"type": "Feature", "geometry": {"type": "Point", "coordinates": [27.9555, 43.21975]}, "properties": {"ocid": "ocds-e82gsb-540799", "title": "Покана 43 „Текущ ремонт на покрив и външно стълбище на общинска сграда, находяща се в гр. Варна, ул. „Джеймс Баучер“ № 3", "value": 14407, "region": "Варна", "locality": "гр.Варна", "buyer": "ОБЩИНА ВАРНА", "supplier": "ПОЛИ ЙОРД ЕООД", "risk": 0.352, "expected_days": 62, "overrun_days": 0, "is_repair": 1}}, {"type": "Feature", "geometry": {"type": "Point", "coordinates": [23.10975, 43.531]}, "properties": {"ocid": "ocds-e82gsb-455760", "title": "„ИНЖЕНЕРИНГ: ПРОЕКТИРАНЕ, ИЗПЪЛНЕНИЕ НА МЕРКИ ЗА ЕНЕРГИЙНА ЕФЕКТИВНОСТ И ПОСЛЕДВАЩО УПРАЖНЯВАНЕ НА АВТОРСКИ НАДЗОР ПО ВР", "value": 604858, "region": "Монтана", "locality": "гр.Брусарци", "buyer": "ОБЩИНА БРУСАРЦИ", "supplier": "НИВЕЛ СТРОЙ ЕООД", "risk": 0.053, "expected_days": 62, "overrun_days": 0, "is_repair": 0}}, {"type": "Feature", "geometry": {"type": "Point", "coordinates": [23.65975, 43.2035]}, "properties": {"ocid": "ocds-e82gsb-545586", "title": "Зимно поддържане, снегопочистване и опесъчаване на общинска пътна мрежа на територията на Община Оряхово за 2025/2026 г.", "value": 45250, "region": "Враца", "locality": "гр.Оряхово", "buyer": "ОБЩИНА ОРЯХОВО", "supplier": "БОЕВ М3С ЕООД", "risk": 0.099, "expected_days": 49, "overrun_days": 0, "is_repair": 1}}, {"type": "Feature", "geometry": {"type": "Point", "coordinates": [24.7015, 43.02]}, "properties": {"ocid": "ocds-e82gsb-551239", "title": "„Техническо обслужване и ремонт на МПС на Община Ловеч за срок 12 месеца“", "value": 6, "region": "Ловеч", "locality": "гр.Ловеч", "buyer": "ОБЩИНА ЛОВЕЧ", "supplier": "ТОНИКАР - 80 ЕООД", "risk": 0.075, "expected_days": 49, "overrun_days": 0, "is_repair": 1}}, {"type": "Feature", "geometry": {"type": "Point", "coordinates": [24.8165, 41.57075]}, "properties": {"ocid": "ocds-e82gsb-139716", "title": "Инженеринг- проектиране, авторски надзор и изпълнение на строителството по проект „Изграждане на ново детско учреждение,", "value": 1220503, "region": "Смолян", "locality": "гр.Велинград", "buyer": "ОБЩИНА ВЕЛИНГРАД", "supplier": "АВА СТРОЙ ЕООД", "risk": 0.047, "expected_days": 62, "overrun_days": 0, "is_repair": 0}}, {"type": "Feature", "geometry": {"type": "Point", "coordinates": [24.5595, 43.442]}, "properties": {"ocid": "ocds-e82gsb-534439", "title": "„Изготвяне на оценка за съответствие на инвестиционни проекти за улици в населените места на територията на община Искър", "value": 16361, "region": "Плевен", "locality": "гр.Искър", "buyer": "ОБЩИНА ИСКЪР", "supplier": "ЕКСПЕРТИНВЕСТ АД", "risk": 0.762, "expected_days": 49, "overrun_days": 0, "is_repair": 1}}, {"type": "Feature", "geometry": {"type": "Point", "coordinates": [27.7735, 43.6175]}, "properties": {"ocid": "ocds-e82gsb-453732", "title": "„Основен ремонт и модернизация на Дом за стари хора“, УПИ V, кв.1 по Регулационен и паркоустройствен план на Градски пар", "value": 1861833, "region": "Добрич", "locality": "Добрич", "buyer": "ОБЩИНА ГРАД ДОБРИЧ", "supplier": "ХРАНКОТОШ ЕООД", "risk": 0.886, "expected_days": 62, "overrun_days": 31, "is_repair": 1}}, {"type": "Feature", "geometry": {"type": "Point", "coordinates": [27.8, 43.61825]}, "properties": {"ocid": "ocds-e82gsb-528189", "title": "„Консултантска услуга по чл.166 ЗУТ на основен ремонт/ рехабилитация на водопроводи в три населени места на община Добри", "value": 2259, "region": "Добрич", "locality": "град Добрич", "buyer": "ОБЩИНА ДОБРИЧКА", "supplier": "ЕСМ ЕООД", "risk": 0.897, "expected_days": 49, "overrun_days": 62, "is_repair": 1}}, {"type": "Feature", "geometry": {"type": "Point", "coordinates": [26.04225, 43.8135]}, "properties": {"ocid": "ocds-e82gsb-544392", "title": "„Зимно поддържане на общинската пътна мрежа и улици в населени места на територията на Община Ветово през 2026 година по", "value": 19828, "region": "Русе", "locality": "гр.Ветово", "buyer": "ОБЩИНА ВЕТОВО", "supplier": "ИМПЕРИАЛ БИЛД ООД", "risk": 0.078, "expected_days": 49, "overrun_days": 0, "is_repair": 1}}, {"type": "Feature", "geometry": {"type": "Point", "coordinates": [28.019, 43.11975]}, "properties": {"ocid": "ocds-e82gsb-397429", "title": "Основен ремонт на сградите на КСУВХ Гергана за реформиране в социална услуга Резидентна грижа за възрастн\r хора в надтру", "value": 2843824, "region": "Варна", "locality": "гр.Варна", "buyer": "ОБЩИНА ВАРНА", "supplier": "ХРАНКОТОШ ЕООД", "risk": 0.181, "expected_days": 62, "overrun_days": 0, "is_repair": 1}}, {"type": "Feature", "geometry": {"type": "Point", "coordinates": [27.422, 42.387]}, "properties": {"ocid": "ocds-e82gsb-538546", "title": "Доставка и монтаж на модулна станция за бункероване на светли горива във връзка с изпълнението на проект: „Благоустройст", "value": 74086, "region": "Бургас", "locality": "гр. Царево", "buyer": "ОБЩИНА ЦАРЕВО", "supplier": "Ivan Ivanov", "risk": 0.433, "expected_days": 21, "overrun_days": 0, "is_repair": 1}}, {"type": "Feature", "geometry": {"type": "Point", "coordinates": [24.737, 42.11]}, "properties": {"ocid": "ocds-e82gsb-531490", "title": ",,СМР по реновиране на електро и осветителна инсталация в Централен болничен архив на УМБАЛ \"Свети Георги\" ЕАД“", "value": 30834, "region": "Пловдив", "locality": "гр. Пловдив", "buyer": "УНИВЕРСИТЕТСКА МНОГОПРОФИЛНА БОЛНИЦА ЗА АКТИВНО ЛЕЧЕНИЕ \"СВЕТИ ГЕОРГИ\" ЕАД", "supplier": "ИНДЖОВСТРОЙ ЕООД", "risk": 0.257, "expected_days": 62, "overrun_days": 0, "is_repair": 0}}, {"type": "Feature", "geometry": {"type": "Point", "coordinates": [27.512, 42.6135]}, "properties": {"ocid": "ocds-e82gsb-536775", "title": "„Основен и текущ ремонт и профилактика на МПС, включително доставка на резервни части, аксесоари, автоконсумативи и смаз", "value": 23519, "region": "Бургас", "locality": "с. Кости", "buyer": "ТЕРИТОРИАЛНО ПОДЕЛЕНИЕ \"ДЪРЖАВНО ГОРСКО СТОПАНСТВО КОСТИ\"", "supplier": "АУТОКОМ 2 ЕООД", "risk": 0.216, "expected_days": 49, "overrun_days": 0, "is_repair": 1}}, {"type": "Feature", "geometry": {"type": "Point", "coordinates": [25.3825, 41.65025]}, "properties": {"ocid": "ocds-e82gsb-530799", "title": "„Упражняване на строителен надзор по време на СМР по обект: „Основен ремонт на улица попадаща в УПИ I, кв. 17 по ПУП на ", "value": 1480, "region": "Кърджали", "locality": "гр.Джебел", "buyer": "ОБЩИНА ДЖЕБЕЛ", "supplier": "ЕТ АЛИС - ДИМИТЪР ЧАВДАРОВ", "risk": 0.014, "expected_days": 49, "overrun_days": 0, "is_repair": 1}}, {"type": "Feature", "geometry": {"type": "Point", "coordinates": [24.68825, 43.3725]}, "properties": {"ocid": "ocds-e82gsb-445116", "title": "„Предоставяне на услуги по организация и управление на проект: \"Реконструкция, ремонт и повишаване на енергийната ефекти", "value": 8538, "region": "Плевен", "locality": "гр. Долна Митрополия", "buyer": "ОБЩИНА ДОЛНА МИТРОПОЛИЯ", "supplier": "НОРТАН ЕООД", "risk": 0.92, "expected_days": 49, "overrun_days": 181, "is_repair": 1}}, {"type": "Feature", "geometry": {"type": "Point", "coordinates": [26.247, 42.7495]}, "properties": {"ocid": "ocds-e82gsb-538990", "title": "„Ремонт, монтаж и демонтаж на съществуваща и доставка, монтаж и демонтаж на нова коледна украса за град Сливен“", "value": 99900, "region": "Сливен", "locality": "гр.Сливен", "buyer": "ОБЩИНА СЛИВЕН", "supplier": "СЪНШАЙН ИНЖЕНЕРИНГ ЕООД", "risk": 0.129, "expected_days": 49, "overrun_days": 0, "is_repair": 1}}, {"type": "Feature", "geometry": {"type": "Point", "coordinates": [23.3205, 42.78075]}, "properties": {"ocid": "ocds-e82gsb-540023", "title": "„Доставка на нерециклирана копирна хартия А4 I вид“ за нуждите на Агенция „Пътна инфраструктура“", "value": 25538, "region": "София (столица)", "locality": "гр.София", "buyer": "АГЕНЦИЯ \"ПЪТНА ИНФРАСТРУКТУРА\"", "supplier": "МЕНИДЖМЪНТ БИЗНЕС МАШИН ООД", "risk": 0.011, "expected_days": 21, "overrun_days": 0, "is_repair": 1}}, {"type": "Feature", "geometry": {"type": "Point", "coordinates": [23.2825, 42.5975]}, "properties": {"ocid": "ocds-e82gsb-517731", "title": "Проектиране и строително-ремонтни работи за основен ремонт на отоплителната и котелната инсталация в Регистрационно-прие", "value": 267201, "region": "София (столица)", "locality": "София", "buyer": "Държавна агенция за бежанците при Министерския съвет", "supplier": "МЕГА ЕЛЕКТРОНИКС-АП ООД", "risk": 0.181, "expected_days": 62, "overrun_days": 0, "is_repair": 1}}, {"type": "Feature", "geometry": {"type": "Point", "coordinates": [27.79825, 43.29725]}, "properties": {"ocid": "ocds-e82gsb-474770", "title": "„Осъществяване на авторски надзор по време на строителството на обект: „Рехабилитация, модернизация и изграждане на инте", "value": 40, "region": "Варна", "locality": "гр.Варна", "buyer": "ОБЩИНА ВАРНА", "supplier": "СПАТО ООД", "risk": 0.851, "expected_days": 49, "overrun_days": 30, "is_repair": 1}}, {"type": "Feature", "geometry": {"type": "Point", "coordinates": [23.01475, 42.0985]}, "properties": {"ocid": "ocds-e82gsb-551267", "title": "Инженеринг (проектиране, СМР и авторски надзор) на обект: \"Изграждане на многофункционална зала в село Краище, общ. Бели", "value": 426000, "region": "Благоевград", "locality": "гр.Белица", "buyer": "ОБЩИНА БЕЛИЦА", "supplier": "ДЗЗД\"ДЕНЕВ БИЛДИНГ\"", "risk": 0.149, "expected_days": 62, "overrun_days": 0, "is_repair": 0}}, {"type": "Feature", "geometry": {"type": "Point", "coordinates": [26.54375, 43.298]}, "properties": {"ocid": "ocds-e82gsb-551682", "title": "Изпълнение на СМР за изграждане на фотоволтаична електроцентрала за собствени нужди за обекти по 2 обособени позиции", "value": 83578, "region": "Търговище", "locality": "гр. Попово", "buyer": "ОБЩИНА ПОПОВО", "supplier": "3К АД", "risk": 0.196, "expected_days": 62, "overrun_days": 0, "is_repair": 0}}, {"type": "Feature", "geometry": {"type": "Point", "coordinates": [23.24225, 42.646]}, "properties": {"ocid": "ocds-e82gsb-527202", "title": "СРР за отстраняване на аварии по сграден фонд и съоръжения на Военномедицинска академия и подчинените й структури", "value": 21431, "region": "София (столица)", "locality": "София", "buyer": "Военномедицинска академия", "supplier": "ТЕХНО - ЕНЕРДЖИ ООД", "risk": 0.072, "expected_days": 62, "overrun_days": 0, "is_repair": 0}}, {"type": "Feature", "geometry": {"type": "Point", "coordinates": [23.38275, 42.6475]}, "properties": {"ocid": "ocds-e82gsb-549919", "title": "ВЪЗСТАНОВЯВАНЕ НА СЪЩЕСТВУВАЩИ КАЛДЪРЪМЕНИ НАСТИЛКИ ПО УЛИЦИ В ГР. КОПРИВЩИЦА", "value": 255645, "region": "София област", "locality": "гр.Копривщица", "buyer": "ОБЩИНА КОПРИВЩИЦА", "supplier": "ЕМ ДЖИ СТРОЙ ГРУП ЕООД", "risk": 0.085, "expected_days": 62, "overrun_days": 0, "is_repair": 1}}, {"type": "Feature", "geometry": {"type": "Point", "coordinates": [25.90925, 43.79275]}, "properties": {"ocid": "ocds-e82gsb-496119", "title": "Техническо обслужване и ремонт, включително доставка на части, консумативи и материали на товарни и специални автомобили", "value": 8045, "region": "Русе", "locality": "гр.Русе", "buyer": "МРЕЖОВИ ЕКСПЛОАТАЦИОНЕН РАЙОН - РУСЕ", "supplier": "ДУНАВ АУТО 2012 ООД", "risk": 0.488, "expected_days": 49, "overrun_days": 0, "is_repair": 1}}, {"type": "Feature", "geometry": {"type": "Point", "coordinates": [24.54875, 43.317]}, "properties": {"ocid": "ocds-e82gsb-462320", "title": "Изпълнение на строително-монтажни работи по проект: „Внедряване на енергоспестяващи мерки в уличното осветление на насел", "value": 1124842, "region": "Плевен", "locality": "гр.Искър", "buyer": "ОБЩИНА ИСКЪР", "supplier": "КРАФТ ТРЕЙД ООД", "risk": 0.739, "expected_days": 62, "overrun_days": 0, "is_repair": 0}}, {"type": "Feature", "geometry": {"type": "Point", "coordinates": [23.4025, 42.77825]}, "properties": {"ocid": "ocds-e82gsb-404660", "title": "Ремонтни работи по уличната мрежа на район „Лозенец“: Пренареждане на паважната настилка на ул. \"Розова долина\" в участъ", "value": 24192, "region": "София (столица)", "locality": "гр.София", "buyer": "РАЙОН \"ЛОЗЕНЕЦ\"", "supplier": "ТРЕЙС ГРУП ХОЛД АД", "risk": 0.005, "expected_days": 62, "overrun_days": 0, "is_repair": 1}}, {"type": "Feature", "geometry": {"type": "Point", "coordinates": [23.40925, 42.8175]}, "properties": {"ocid": "ocds-e82gsb-540176", "title": "„Доставка на нерециклирана копирна хартия А4 II вид“ за нуждите на Агенция „Пътна инфраструктура“", "value": 4847, "region": "София (столица)", "locality": "гр.София", "buyer": "АГЕНЦИЯ \"ПЪТНА ИНФРАСТРУКТУРА\"", "supplier": "ВТ - Трейд ЕООД", "risk": 0.079, "expected_days": 21, "overrun_days": 0, "is_repair": 1}}, {"type": "Feature", "geometry": {"type": "Point", "coordinates": [27.356, 42.5985]}, "properties": {"ocid": "ocds-e82gsb-538471", "title": "Доставка на телескопичен колесен челен товарач във връзка с изпълнението на проект: „Благоустройство и модернизация на П", "value": 71575, "region": "Бургас", "locality": "гр. Царево", "buyer": "ОБЩИНА ЦАРЕВО", "supplier": "ЗЛАТЕКС ООД", "risk": 0.433, "expected_days": 21, "overrun_days": 0, "is_repair": 1}}, {"type": "Feature", "geometry": {"type": "Point", "coordinates": [24.65525, 42.08425]}, "properties": {"ocid": "ocds-e82gsb-539272", "title": ",,Частичен ремонт на покрива на Клиника по психиатрия, База 1 на УМБАЛ \"Свети Георги\" ЕАД“", "value": 33989, "region": "Пловдив", "locality": "гр. Пловдив", "buyer": "УНИВЕРСИТЕТСКА МНОГОПРОФИЛНА БОЛНИЦА ЗА АКТИВНО ЛЕЧЕНИЕ \"СВЕТИ ГЕОРГИ\" ЕАД", "supplier": "ИНДЖОВСТРОЙ ЕООД", "risk": 0.153, "expected_days": 62, "overrun_days": 0, "is_repair": 1}}, {"type": "Feature", "geometry": {"type": "Point", "coordinates": [23.25825, 42.79775]}, "properties": {"ocid": "ocds-e82gsb-541950", "title": "„СМР по текущ ремонт на сградата на клуб на пенсионера с. Кривина“", "value": 86621, "region": "София (столица)", "locality": "с.Панчарево", "buyer": "РАЙОН \"ПАНЧАРЕВО\"", "supplier": "ГЛАВБОЛГАРСТРОЙ АД", "risk": 0.395, "expected_days": 62, "overrun_days": 0, "is_repair": 1}}, {"type": "Feature", "geometry": {"type": "Point", "coordinates": [22.9905, 42.58225]}, "properties": {"ocid": "ocds-e82gsb-545342", "title": "„Зимно поддържане на ІV-то класната пътна мрежа на територията на Община Радомир през 2025 – 2026 год.”", "value": 76693, "region": "Перник", "locality": "гр.Радомир", "buyer": "ОБЩИНА РАДОМИР", "supplier": "ИНФРАКОРЕКТ СТРОЙ ЕООД", "risk": 0.129, "expected_days": 49, "overrun_days": 0, "is_repair": 1}}, {"type": "Feature", "geometry": {"type": "Point", "coordinates": [22.77525, 42.224]}, "properties": {"ocid": "ocds-e82gsb-538248", "title": "Зимно поддържане и снегопочистванеи текущо поддържане на общински пътища и улична мрежа на територията на Община Невести", "value": 59, "region": "Кюстендил", "locality": "с.Невестино", "buyer": "ОБЩИНА НЕВЕСТИНО", "supplier": "БУЛПЛАН ИНВЕСТ ООД", "risk": 0.201, "expected_days": 49, "overrun_days": 0, "is_repair": 1}}, {"type": "Feature", "geometry": {"type": "Point", "coordinates": [23.38525, 42.61025]}, "properties": {"ocid": "ocds-e82gsb-413854", "title": "Цялостен ремонт на тротоарни настилки по ул. „Koзяк“ и ул. „Орел“", "value": 45492, "region": "София (столица)", "locality": "гр.София", "buyer": "РАЙОН \"ЛОЗЕНЕЦ\"", "supplier": "ТРЕЙС ГРУП ХОЛД АД", "risk": 0.158, "expected_days": 62, "overrun_days": 0, "is_repair": 1}}, {"type": "Feature", "geometry": {"type": "Point", "coordinates": [26.43025, 43.585]}, "properties": {"ocid": "ocds-e82gsb-549998", "title": "„Зимно поддържане на общинската пътна мрежа и снегопочистване по уличната мрежа в населени места на територията на Общин", "value": 77000, "region": "Разград", "locality": "гр.Кубрат", "buyer": "ОБЩИНА КУБРАТ", "supplier": "КУБРАТСКА ГОРА ЕООД", "risk": 0.109, "expected_days": 49, "overrun_days": 0, "is_repair": 1}}, {"type": "Feature", "geometry": {"type": "Point", "coordinates": [23.27725, 42.8225]}, "properties": {"ocid": "ocds-e82gsb-231575", "title": "Избор на изпълнител за обект: „Канализация по ул. „Ефрем Чучков“ в участъка от ул. „24“ (О.Т. 4) до включването в Десен ", "value": 445628, "region": "София (столица)", "locality": "гр.София", "buyer": "СТОЛИЧНА ОБЩИНА", "supplier": "Булстрой - монтажи ЕООД", "risk": 0.285, "expected_days": 62, "overrun_days": 0, "is_repair": 0}}, {"type": "Feature", "geometry": {"type": "Point", "coordinates": [24.746, 42.02175]}, "properties": {"ocid": "ocds-e82gsb-239632", "title": "Строителство на покрит паркинг /многоетажен гараж/ в поземлен имот с идентификатор 56784.510.1051, УПИ LIX-510.1051, здр", "value": 8399196, "region": "Пловдив", "locality": "гр. Пловдив", "buyer": "УНИВЕРСИТЕТСКА МНОГОПРОФИЛНА БОЛНИЦА ЗА АКТИВНО ЛЕЧЕНИЕ \"СВЕТИ ГЕОРГИ\" ЕАД", "supplier": "ИНТЕРБИЛД 2023", "risk": 0.03, "expected_days": 62, "overrun_days": 0, "is_repair": 1}}, {"type": "Feature", "geometry": {"type": "Point", "coordinates": [26.52575, 43.594]}, "properties": {"ocid": "ocds-e82gsb-538948", "title": "Избор на изпълнител за зимно поддържане и снегопочистване на общинска пътна мрежа на територията на Община Исперих за 20", "value": 71580, "region": "Разград", "locality": "гр.Исперих", "buyer": "ОБЩИНА ИСПЕРИХ", "supplier": "ПЪТ КОНСУЛТ ООД", "risk": 0.005, "expected_days": 49, "overrun_days": 0, "is_repair": 1}}, {"type": "Feature", "geometry": {"type": "Point", "coordinates": [25.922, 43.74425]}, "properties": {"ocid": "ocds-e82gsb-533971", "title": "„ТЕКУЩ РЕМОНТ ПОКРИВ НА ДГ „СЛАВЕЙЧЕ“, ГР. БОРОВО, ОБЛАСТ РУСЕ, ПИ № 628, КВ. 36”", "value": 197500, "region": "Русе", "locality": "гр.Борово", "buyer": "ОБЩИНА БОРОВО", "supplier": "КОМЕРС 62 ЕООД", "risk": 0.513, "expected_days": 62, "overrun_days": 0, "is_repair": 1}}, {"type": "Feature", "geometry": {"type": "Point", "coordinates": [22.76125, 44.06725]}, "properties": {"ocid": "ocds-e82gsb-545169", "title": "„ДОСТАВКА НА ЕДИН БРОЙ УПОТРЕБЯВАН ПЪТНИЧЕСКИ БУС ЗА НУЖДИТЕ НА ОБЩИНА НОВО СЕЛО\"", "value": 29200, "region": "Видин", "locality": "с.Ново село", "buyer": "ОБЩИНА НОВО СЕЛО", "supplier": "СТАНЕВ АВТОМОБИЛИ ЕООД", "risk": 0.284, "expected_days": 21, "overrun_days": 0, "is_repair": 1}}, {"type": "Feature", "geometry": {"type": "Point", "coordinates": [23.1965, 42.76]}, "properties": {"ocid": "ocds-e82gsb-507030", "title": "Услуги по ремонт и поддържане на електрически инсталации в сгради стопанисвани от НАП", "value": 6135, "region": "София (столица)", "locality": "гр.София", "buyer": "НАЦИОНАЛНА АГЕНЦИЯ ЗА ПРИХОДИТЕ", "supplier": "КИ ЕЛ МОНТАЖИ ЕООД", "risk": 0.181, "expected_days": 49, "overrun_days": 0, "is_repair": 1}}, {"type": "Feature", "geometry": {"type": "Point", "coordinates": [25.5985, 42.84975]}, "properties": {"ocid": "ocds-e82gsb-538886", "title": "Ремонтни дейности на хидроизолацията по покрива на тяло 3 от сградата \"Първа езикова гимназия", "value": 57073, "region": "—", "locality": "гр.Варна", "buyer": "ПЪРВА ЕЗИКОВА ГИМНАЗИЯ", "supplier": "МУХТАРОВ ООД", "risk": 0.164, "expected_days": 62, "overrun_days": 0, "is_repair": 1}}, {"type": "Feature", "geometry": {"type": "Point", "coordinates": [25.661, 42.36775]}, "properties": {"ocid": "ocds-e82gsb-536665", "title": "„Извършване на строително-монтажни работи за изграждане на училищна STEM среда във Второ основно училище „Петко Рачов Сл", "value": 100304, "region": "Стара Загора", "locality": "гр.Стара Загора", "buyer": "ВТОРО ОСНОВНО УЧИЛИЩЕ \"ПЕТКО РАЧОВ СЛАВЕЙКОВ\"", "supplier": "ДЕСКРИЙМ БИЛДИНГ ЕООД", "risk": 0.043, "expected_days": 62, "overrun_days": 0, "is_repair": 0}}, {"type": "Feature", "geometry": {"type": "Point", "coordinates": [24.365, 42.298]}, "properties": {"ocid": "ocds-e82gsb-440811", "title": "„РЕМОНТ, РЕКОНСТРУКЦИЯ И ПРИСТРОЙКА НА СЪЩЕСТВУВАЩ ДОМ ЗА СТАРИ ХОРА И ПРИЛАГАНЕ НА МЕРКИ ЗА ЕНЕРГИЙНА ЕФЕКТИВНОСТ“", "value": 1078458, "region": "Пазарджик", "locality": "гр.Харманли", "buyer": "ОБЩИНА ХАРМАНЛИ", "supplier": "ЕКО ТРАДЕКС ГРУП АД", "risk": 0.025, "expected_days": 62, "overrun_days": 0, "is_repair": 1}}, {"type": "Feature", "geometry": {"type": "Point", "coordinates": [23.36125, 42.59425]}, "properties": {"ocid": "ocds-e82gsb-472822", "title": "„Ремонт на паркинг на ул. „Персенк“ – бл. 34 и преасфалтиране на лента за паркиране от ул. „Драгалевска“ до ул. „Трепетл", "value": 59890, "region": "София (столица)", "locality": "гр.София", "buyer": "РАЙОН \"ЛОЗЕНЕЦ\"", "supplier": "ТРЕЙС ГРУП ХОЛД АД", "risk": 0.037, "expected_days": 62, "overrun_days": 0, "is_repair": 1}}, {"type": "Feature", "geometry": {"type": "Point", "coordinates": [27.792, 43.135]}, "properties": {"ocid": "ocds-e82gsb-442338", "title": "Инженеринг (проектиране, авторски надзор и строителство) за обект: „Реконструкция на пречиствателна станция за отпадъчни", "value": 6757436, "region": "Варна", "locality": "гр. Варна", "buyer": "ВОДОСНАБДЯВАНЕ И КАНАЛИЗАЦИЯ - ВАРНА ООД", "supplier": "Дружество по ЗЗД ,,ПСОВ Девня 2024\"", "risk": 0.052, "expected_days": 62, "overrun_days": 0, "is_repair": 1}}, {"type": "Feature", "geometry": {"type": "Point", "coordinates": [25.98975, 43.9305]}, "properties": {"ocid": "ocds-e82gsb-320443", "title": "„Консултантски услуги по управление и отчитане на проект: “Реконструкция и рехабилитация на улични водопроводи с разваля", "value": 27000, "region": "Русе", "locality": "гр.Борово", "buyer": "ОБЩИНА БОРОВО", "supplier": "Ен Ес Проект ЕООД", "risk": 0.131, "expected_days": 49, "overrun_days": 0, "is_repair": 1}}, {"type": "Feature", "geometry": {"type": "Point", "coordinates": [23.1295, 42.04475]}, "properties": {"ocid": "ocds-e82gsb-538734", "title": "„Ремонт на кабинети за изграждане на училищен STEM център в ПМГ „Акад. Сергей П. Корольов“ гр. Благоевград“", "value": 40903, "region": "Благоевград", "locality": "гр.Благоевград", "buyer": "ПРИРОДО-МАТЕМАТИЧЕСКА ГИМНАЗИЯ \"АКАД. СЕРГЕЙ КОРОЛЬОВ\"", "supplier": "ИНВЕСТ ИН 99 ЕООД", "risk": 0.116, "expected_days": 62, "overrun_days": 0, "is_repair": 1}}, {"type": "Feature", "geometry": {"type": "Point", "coordinates": [22.6555, 42.35575]}, "properties": {"ocid": "ocds-e82gsb-499897", "title": "„Инженеринг – проектиране, изпълнение на строително-монтажни работи и упражняване на авторски надзор за обект „Рехабилит", "value": 55679, "region": "Кюстендил", "locality": "гр.Бобов дол", "buyer": "ОБЩИНА БОБОВ ДОЛ", "supplier": "РАСТЕР-ЮГ ООД", "risk": 0.147, "expected_days": 62, "overrun_days": 0, "is_repair": 1}}, {"type": "Feature", "geometry": {"type": "Point", "coordinates": [28.014, 43.25725]}, "properties": {"ocid": "ocds-e82gsb-548369", "title": "„Упражняване на строителен надзор на по време на изпълнение на СМР на обект: „Основен ремонт, подобряване на енергийна е", "value": 511, "region": "Варна", "locality": "гр.Провадия", "buyer": "ОБЩИНА ПРОВАДИЯ", "supplier": "ТРАФИК ХОЛДИНГ ЕООД", "risk": 0.179, "expected_days": 49, "overrun_days": 0, "is_repair": 1}}, {"type": "Feature", "geometry": {"type": "Point", "coordinates": [27.9555, 43.1235]}, "properties": {"ocid": "ocds-e82gsb-323685", "title": "Предоставяне на услуги по застраховане чрез застраховка „Гражданска отговорност“ на автомобилистите, „КАСКО“ и доброволн", "value": 1351678, "region": "Варна", "locality": "гр. Варна", "buyer": "ЕЛЕКТРОРАЗПРЕДЕЛЕНИЕ СЕВЕР АД", "supplier": "ДЖЕНЕРАЛИ ЗАСТРАХОВАНЕ АД", "risk": 0.464, "expected_days": 49, "overrun_days": 0, "is_repair": 1}}, {"type": "Feature", "geometry": {"type": "Point", "coordinates": [24.5785, 43.54075]}, "properties": {"ocid": "ocds-e82gsb-386945", "title": "„Обществен превоз на пътници по автобусни линии от областна и общинска транспортни схеми, по утвърдени маршрутни разписа", "value": 150831, "region": "Плевен", "locality": "гр. Плевен", "buyer": "ОБЩИНА ПЛЕВЕН", "supplier": "РОЗЕН - МОНОВ ООД", "risk": 0.052, "expected_days": 49, "overrun_days": 0, "is_repair": 1}}, {"type": "Feature", "geometry": {"type": "Point", "coordinates": [26.819, 43.163]}, "properties": {"ocid": "ocds-e82gsb-545414", "title": "„Извършване на обществен превоз на пътници по автобусни линии от областната и общинска транспортна схема, съгласно утвър", "value": 63911, "region": "Шумен", "locality": "гр.Велики Преслав", "buyer": "ОБЩИНА ВЕЛИКИ ПРЕСЛАВ", "supplier": "ШУМЕН - ПЪТНИЧЕСКИ АВТОТРАНСПОРТ ООД", "risk": 0.004, "expected_days": 49, "overrun_days": 0, "is_repair": 1}}, {"type": "Feature", "geometry": {"type": "Point", "coordinates": [23.30975, 42.7205]}, "properties": {"ocid": "ocds-e82gsb-260766", "title": "Текущи ремонти на административните сгради на Столична община с две обособени позиции:", "value": 127822, "region": "София (столица)", "locality": "гр.София", "buyer": "СТОЛИЧНА ОБЩИНА", "supplier": "СИТИ КОМУНАЛНО СТРОИТЕЛСТВО", "risk": 0.358, "expected_days": 62, "overrun_days": 0, "is_repair": 1}}, {"type": "Feature", "geometry": {"type": "Point", "coordinates": [23.32125, 42.75275]}, "properties": {"ocid": "ocds-e82gsb-409686", "title": "„Основен ремонт на сграда, находяща се на ул. „Васил Петлешков“ №41, СО-Район „Подуяне“", "value": 436175, "region": "София (столица)", "locality": "гр.София", "buyer": "РАЙОН \"ПОДУЯНЕ\"", "supplier": "НСК СОФИЯ ЕООД", "risk": 0.055, "expected_days": 62, "overrun_days": 0, "is_repair": 1}}, {"type": "Feature", "geometry": {"type": "Point", "coordinates": [26.219, 42.75175]}, "properties": {"ocid": "ocds-e82gsb-414139", "title": "„Осигуряване на денонощна охрана - физическа защита, чрез невъоръжен персонал, обслужване на система за видеонаблюдение ", "value": 238020, "region": "Сливен", "locality": "гр. Сливен", "buyer": "\"Многопрофилна болница за активно лечение д - р Иван Селимински - Сливен\" АД", "supplier": "ЕВРОФОРС ГРУП ЕООД", "risk": 0.048, "expected_days": 49, "overrun_days": 0, "is_repair": 1}}, {"type": "Feature", "geometry": {"type": "Point", "coordinates": [24.73875, 42.11575]}, "properties": {"ocid": "ocds-e82gsb-500110", "title": "Спешен ремонт на покрива на Професионална Селскостопанска гимназия „Димитър Наумов“, гр. Садово", "value": 311698, "region": "Пловдив", "locality": "гр.Садово", "buyer": "ПРОФЕСИОНАЛНА СЕЛСКОСТОПАНСКА ГИМНАЗИЯ \"ДИМИТЪР НАУМОВ\" - гр. САДОВО", "supplier": "ГАРАНТ СТРОЙ ООД", "risk": 0.039, "expected_days": 62, "overrun_days": 0, "is_repair": 1}}, {"type": "Feature", "geometry": {"type": "Point", "coordinates": [26.54175, 42.435]}, "properties": {"ocid": "ocds-e82gsb-543308", "title": "„Текущ ремонт на вътрешно квартално пространство - тротоарна настилка към улици, в участъка от ул. \"Димитър Благоев\" до ", "value": 42181, "region": "Ямбол", "locality": "гр.Ямбол", "buyer": "ОБЩИНА ЯМБОЛ", "supplier": "ГОЧЕВ СТИЛ ЕООД", "risk": 0.041, "expected_days": 62, "overrun_days": 0, "is_repair": 1}}, {"type": "Feature", "geometry": {"type": "Point", "coordinates": [23.32775, 42.61575]}, "properties": {"ocid": "ocds-e82gsb-515663", "title": "Превоз на личния състав на военни формирования от Сухопътните войски до месторабота и обратно", "value": 156547, "region": "София (столица)", "locality": "София", "buyer": "СУХОПЪТНИ ВОЙСКИ - ВОЕННО ФОРМИРОВАНИЕ 22450", "supplier": "ЩУКА - ЗАРЕВИ СИЕ СД", "risk": 0.1, "expected_days": 49, "overrun_days": 0, "is_repair": 1}}, {"type": "Feature", "geometry": {"type": "Point", "coordinates": [25.5575, 43.1955]}, "properties": {"ocid": "ocds-e82gsb-552736", "title": "„Доставка на техническа сол (натриев хлорид) за обезпечаване на снегопочистването и поддържането на общинската пътна мре", "value": 15000, "region": "Велико Търново", "locality": "гр. Свищов", "buyer": "ОБЩИНА СВИЩОВ", "supplier": "ГАФУРОВ СЕРВИЗ ЕООД", "risk": 0.391, "expected_days": 21, "overrun_days": 0, "is_repair": 1}}, {"type": "Feature", "geometry": {"type": "Point", "coordinates": [25.726, 42.34375]}, "properties": {"ocid": "ocds-e82gsb-533939", "title": "„ИЗГРАЖДАНЕ И ОБОРУДВАНЕ НА НОВИ СОЦИАЛНИ И ИНТЕГРИРАНИ ЗДРАВНО-СОЦИАЛНИ УСЛУГИ ЗА РЕЗИДЕНТНА ГРИЖА И СПЕЦИАЛИЗИРАНИ СОЦ", "value": 537951, "region": "Стара Загора", "locality": "с.Братя Даскалови", "buyer": "ОБЩИНА БРАТЯ ДАСКАЛОВИ", "supplier": "СТРОЙГРУП 77 ЕООД", "risk": 0.909, "expected_days": 62, "overrun_days": 22, "is_repair": 0}}, {"type": "Feature", "geometry": {"type": "Point", "coordinates": [24.7945, 42.255]}, "properties": {"ocid": "ocds-e82gsb-374825", "title": "Извършване на дейности за ремонт, саниране, преустройство и разрушаване на архитектурно-строителна част на трафопостове ", "value": 115546, "region": "Пловдив", "locality": "гр. Пловдив", "buyer": "Електроразпределение Юг ЕАД", "supplier": "ВАЯНА ЕООД", "risk": 0.047, "expected_days": 62, "overrun_days": 0, "is_repair": 1}}, {"type": "Feature", "geometry": {"type": "Point", "coordinates": [23.3195, 43.45725]}, "properties": {"ocid": "ocds-e82gsb-495788", "title": "\"Изпълнение на СМР на обект: „Реконструкция на част от водопроводната мрежа на гр. Вършец“ по 18 (осемнадесет) обособени", "value": 46559, "region": "Монтана", "locality": "гр.Вършец", "buyer": "ОБЩИНА ВЪРШЕЦ", "supplier": "КОПЕКС И КО. ООД", "risk": 0.879, "expected_days": 62, "overrun_days": 57, "is_repair": 1}}, {"type": "Feature", "geometry": {"type": "Point", "coordinates": [22.567, 42.38775]}, "properties": {"ocid": "ocds-e82gsb-499778", "title": "Инженеринг – проектиране, изпълнение на строително-монтажни работи и упражняване на авторски надзор за обект „Рехабилита", "value": 128998, "region": "Кюстендил", "locality": "гр.Бобов дол", "buyer": "ОБЩИНА БОБОВ ДОЛ", "supplier": "РАСТЕР-ЮГ ООД", "risk": 0.173, "expected_days": 62, "overrun_days": 0, "is_repair": 1}}, {"type": "Feature", "geometry": {"type": "Point", "coordinates": [24.8215, 42.08125]}, "properties": {"ocid": "ocds-e82gsb-374750", "title": "Извършване на дейности за ремонт, саниране, преустройство и разрушаване на архитектурно-строителна част на трафопостове ", "value": 110076, "region": "Пловдив", "locality": "гр. Пловдив", "buyer": "Електроразпределение Юг ЕАД", "supplier": "ВАЯНА ЕООД", "risk": 0.063, "expected_days": 62, "overrun_days": 0, "is_repair": 1}}, {"type": "Feature", "geometry": {"type": "Point", "coordinates": [24.449, 42.23575]}, "properties": {"ocid": "ocds-e82gsb-527779", "title": "“Избор на изпълнител за изготвяне на оценка на съответствие на инвестиционен проект и упражняване на строителен надзор з", "value": 13129, "region": "Пазарджик", "locality": "гр. Хасково", "buyer": "ОБЩИНА ХАСКОВО", "supplier": "ЕКИП - МГ ООД", "risk": 0.264, "expected_days": 49, "overrun_days": 0, "is_repair": 1}}, {"type": "Feature", "geometry": {"type": "Point", "coordinates": [23.4255, 42.64125]}, "properties": {"ocid": "ocds-e82gsb-503616", "title": "„Изпълнение на външни строително-монтажни работи (СМР) по два подобекта на територията на МВнР-ЦУ“", "value": 63834, "region": "София (столица)", "locality": "гр.София", "buyer": "МИНИСТЕРСТВО НА ВЪНШНИТЕ РАБОТИ", "supplier": "ИВКОМПЛЕКТ ЕООД", "risk": 0.119, "expected_days": 62, "overrun_days": 0, "is_repair": 0}}, {"type": "Feature", "geometry": {"type": "Point", "coordinates": [24.796, 42.2205]}, "properties": {"ocid": "ocds-e82gsb-258828", "title": "Извършване на дейности за ремонт, саниране, преустройство и разрушаване на архитектурно-строителна част на трафопостове ", "value": 148757, "region": "Пловдив", "locality": "гр. Пловдив", "buyer": "Електроразпределение Юг ЕАД", "supplier": "ВАЯНА ЕООД", "risk": 0.811, "expected_days": 62, "overrun_days": 366, "is_repair": 1}}, {"type": "Feature", "geometry": {"type": "Point", "coordinates": [24.79075, 41.53175]}, "properties": {"ocid": "ocds-e82gsb-551754", "title": "Инженеринг (проектиране, строителство и авторски надзор) за обект: „Основен ремонт и/или рехабилитация на улици в с.Кръс", "value": 696520, "region": "Смолян", "locality": "гр.Велинград", "buyer": "ОБЩИНА ВЕЛИНГРАД", "supplier": "Делчев Инженеринг ООД", "risk": 0.023, "expected_days": 62, "overrun_days": 0, "is_repair": 1}}, {"type": "Feature", "geometry": {"type": "Point", "coordinates": [23.6175, 42.55975]}, "properties": {"ocid": "ocds-e82gsb-530372", "title": "Играждане на детска площадка и ограда в двора на ДГ \"Зорница\"- филиал с.Радуил", "value": 39368, "region": "София област", "locality": "гр.Самоков", "buyer": "ОБЩИНА САМОКОВ", "supplier": "ЕТ АС-СТРОЙ - ЯНКО СЛАВЧЕВ", "risk": 0.42, "expected_days": 62, "overrun_days": 0, "is_repair": 0}}, {"type": "Feature", "geometry": {"type": "Point", "coordinates": [23.41025, 42.693]}, "properties": {"ocid": "ocds-e82gsb-516606", "title": "Проектиране и строително-ремонтни работи за изграждане на климатизация на Хале 13 в Регистрационно-приемателен център - ", "value": 321891, "region": "София (столица)", "locality": "София", "buyer": "Държавна агенция за бежанците при Министерския съвет", "supplier": "МЕГА ЕЛЕКТРОНИКС-АП ООД", "risk": 0.157, "expected_days": 62, "overrun_days": 0, "is_repair": 1}}, {"type": "Feature", "geometry": {"type": "Point", "coordinates": [24.762, 41.595]}, "properties": {"ocid": "ocds-e82gsb-552959", "title": "Избор на изпълнител за изпълнение на СМР на обект: „Реконструкция на уличен водопровод по ул.“Батак“ в участъка от ул.“Ч", "value": 283750, "region": "Смолян", "locality": "гр.Ракитово", "buyer": "ОБЩИНА РАКИТОВО", "supplier": "СИ-СТРОЙ ООД", "risk": 0.008, "expected_days": 62, "overrun_days": 0, "is_repair": 1}}, {"type": "Feature", "geometry": {"type": "Point", "coordinates": [24.66525, 42.223]}, "properties": {"ocid": "ocds-e82gsb-535905", "title": "Рехабилитация на системи за резервирано захранване Benning използвани в Електроразпределение Юг ЕАД", "value": 378130, "region": "Пловдив", "locality": "гр. Пловдив", "buyer": "Електроразпределение Юг ЕАД", "supplier": "МАРПЕКС ООД", "risk": 0.195, "expected_days": 21, "overrun_days": 0, "is_repair": 1}}, {"type": "Feature", "geometry": {"type": "Point", "coordinates": [28.0285, 43.292]}, "properties": {"ocid": "ocds-e82gsb-552717", "title": "„Извършване на ремонтни дейности на територията на рибарско пристанище – „Варна“, район Аспарухово“, в рамките на проект", "value": 479471, "region": "Варна", "locality": "гр.Варна", "buyer": "ОБЩИНА ВАРНА", "supplier": "КБИ ЕООД", "risk": 0.242, "expected_days": 62, "overrun_days": 0, "is_repair": 1}}, {"type": "Feature", "geometry": {"type": "Point", "coordinates": [23.655, 43.24275]}, "properties": {"ocid": "ocds-e82gsb-553960", "title": "Инженеринг – проектиране, изпълнение на CMP и авторски надзор за инсталиране на фотоволтаични системи (ФЕЦ) до 30 kW в „", "value": 23666, "region": "Враца", "locality": "гр. Мездра", "buyer": "ОБЩИНА МЕЗДРА", "supplier": "Смарт Електрикс ЕООД", "risk": 0.036, "expected_days": 62, "overrun_days": 0, "is_repair": 0}}, {"type": "Feature", "geometry": {"type": "Point", "coordinates": [26.42, 42.56675]}, "properties": {"ocid": "ocds-e82gsb-543314", "title": "„Текущ ремонт на вътрешно квартално пространство - тротоарна настилка и оформяне на места за паркиране на ул. \"Г. В. Заи", "value": 34049, "region": "Ямбол", "locality": "гр.Ямбол", "buyer": "ОБЩИНА ЯМБОЛ", "supplier": "ГОЧЕВ СТИЛ ЕООД", "risk": 0.059, "expected_days": 62, "overrun_days": 0, "is_repair": 1}}, {"type": "Feature", "geometry": {"type": "Point", "coordinates": [22.88825, 44.08025]}, "properties": {"ocid": "ocds-e82gsb-534829", "title": "\"Зимно поддържане, снегопочистване и опесъчаване на общинска пътна мрежа и улична пътна мрежа на територията на община К", "value": 30327, "region": "Видин", "locality": "гр.Кула", "buyer": "ОБЩИНА КУЛА", "supplier": "ПСТ ВИДИН ЕООД", "risk": 0.225, "expected_days": 49, "overrun_days": 0, "is_repair": 1}}, {"type": "Feature", "geometry": {"type": "Point", "coordinates": [26.90175, 43.19625]}, "properties": {"ocid": "ocds-e82gsb-554472", "title": "„ИЗВЪРШВАНЕ НА ОБЩЕСТВЕН ПРЕВОЗ НА ПЪТНИЦИ ПО АВТОБУСНИ ЛИНИИ ОТ ОБЛАСТНАТА И ОБЩИНСКА ТРАНСПОРТНА СХЕМА, СЪГЛАСНО УТВЪР", "value": 35790, "region": "Шумен", "locality": "гр.Велики Преслав", "buyer": "ОБЩИНА ВЕЛИКИ ПРЕСЛАВ", "supplier": "МИСТУР ЕООД", "risk": 0.017, "expected_days": 49, "overrun_days": 0, "is_repair": 1}}, {"type": "Feature", "geometry": {"type": "Point", "coordinates": [23.4295, 42.7845]}, "properties": {"ocid": "ocds-e82gsb-525724", "title": "„ПРОЕКТИРАНЕ, ДОСТАВКА, ИЗГРАЖДАНЕ, АВТОРСКИ НАДЗОР И ВЪВЕЖДАНЕ В ЕКСПЛОАТАЦИЯ (ИНЖЕНЕРИНГ) НА ОБЕКТ: „РЕКОНСТРУКЦИЯ НА ", "value": 320068, "region": "София (столица)", "locality": "гр.София", "buyer": "СПОРТНО УЧИЛИЩЕ \" ГЕН. ВЛАДИМИР СТОЙЧЕВ\"", "supplier": "СТРОЙГРУП ЕООД", "risk": 0.038, "expected_days": 62, "overrun_days": 0, "is_repair": 1}}, {"type": "Feature", "geometry": {"type": "Point", "coordinates": [23.40825, 42.74125]}, "properties": {"ocid": "ocds-e82gsb-553709", "title": "Договор с № СОА26-ДГ55-26/15.01.2026 г. с предмет: \"Ремонт на покрива на Театър \"София\"", "value": 253919, "region": "София (столица)", "locality": "гр.София", "buyer": "СТОЛИЧНА ОБЩИНА", "supplier": "СОФЕКОСТРОЙ ЕАД", "risk": 0.41, "expected_days": 62, "overrun_days": 0, "is_repair": 1}}, {"type": "Feature", "geometry": {"type": "Point", "coordinates": [22.83425, 44.03325]}, "properties": {"ocid": "ocds-e82gsb-529524", "title": "ПРОЕКТИРАНЕ НА ОБЕКТ „РЕКОНСТРУКЦИЯ НА ВОДОСНАБДИТЕЛНАТА МРЕЖА НА С. ПЛЕШИВЕЦ, ОБЩИНА РУЖИНЦИ“", "value": 12782, "region": "Видин", "locality": "с.Ружинци", "buyer": "ОБЩИНА РУЖИНЦИ", "supplier": "Илко Илиев", "risk": 0.534, "expected_days": 49, "overrun_days": 0, "is_repair": 1}}, {"type": "Feature", "geometry": {"type": "Point", "coordinates": [24.713, 43.49925]}, "properties": {"ocid": "ocds-e82gsb-552677", "title": "Избор на изпълнител за упражняване на строителен надзор по време на строителството на обект: \"Авариен ремонт на покрив н", "value": 1580, "region": "Плевен", "locality": "гр.Гулянци", "buyer": "ОБЩИНА ГУЛЯНЦИ", "supplier": "КАД КОНСУЛТ БГ ЕООД", "risk": 0.057, "expected_days": 49, "overrun_days": 0, "is_repair": 1}}, {"type": "Feature", "geometry": {"type": "Point", "coordinates": [27.829, 43.6325]}, "properties": {"ocid": "ocds-e82gsb-528851", "title": "СЪЗДАВАНЕ НА ДОСТЪПНА АРХИТЕКТУРНА СРЕДА ЗА ПГ ПО ТРАНСПОРТ, ОБСЛУЖВАНЕ И ЛЕКА ПРОМИШЛЕНОСТ ГР. ДОБРИЧ, АСАНСЬОР ЗА ДОСТ", "value": 44197, "region": "Добрич", "locality": "гр.Добрич", "buyer": "ПРОФЕСИОНАЛНА ГИМНАЗИЯ ПО ТРАНСПОРТ,ОБСЛУЖВАНЕ И ЛЕКА ПРОМИШЛЕНОСТ", "supplier": "КОСТОФФ ЕООД", "risk": 0.371, "expected_days": 62, "overrun_days": 0, "is_repair": 0}}, {"type": "Feature", "geometry": {"type": "Point", "coordinates": [27.9995, 43.26975]}, "properties": {"ocid": "ocds-e82gsb-389485", "title": "„Рехабилитация на път VAR 2217 - /III-731, Черноок – Градинарово/ - Славейково, по две обособени позиции“.", "value": 1378936, "region": "Варна", "locality": "гр.Провадия", "buyer": "ОБЩИНА ПРОВАДИЯ", "supplier": "АВТОМАГИСТРАЛИ - ЧЕРНО МОРЕ АД", "risk": 0.44, "expected_days": 62, "overrun_days": 0, "is_repair": 1}}, {"type": "Feature", "geometry": {"type": "Point", "coordinates": [24.54725, 43.5135]}, "properties": {"ocid": "ocds-e82gsb-552671", "title": "„Инженеринг - проектиране, упражняване на авторски надзор и изпълнение на строително-монтажни работи (СМР) на обект: \"Ав", "value": 240297, "region": "Плевен", "locality": "гр.Гулянци", "buyer": "ОБЩИНА ГУЛЯНЦИ", "supplier": "БМ-ГРУП-ИНЖЕНЕРИНГ ЕООД", "risk": 0.183, "expected_days": 62, "overrun_days": 0, "is_repair": 1}}, {"type": "Feature", "geometry": {"type": "Point", "coordinates": [24.79375, 41.46875]}, "properties": {"ocid": "ocds-e82gsb-552972", "title": "Избор на изпълнител за изпълнение на СМР на обект: „Благоустрояване на ул.“Спартак-Бреза“ – реконструкция и рехабилитаци", "value": 195962, "region": "Смолян", "locality": "гр.Ракитово", "buyer": "ОБЩИНА РАКИТОВО", "supplier": "СИ-СТРОЙ ООД", "risk": 0.016, "expected_days": 62, "overrun_days": 0, "is_repair": 1}}, {"type": "Feature", "geometry": {"type": "Point", "coordinates": [23.544, 42.48375]}, "properties": {"ocid": "ocds-e82gsb-551774", "title": "„Упражняване на авторски надзор по време на строителството на обект: „Реконструкция на ул. „Железничар“ от о.т. 84 до о.", "value": 6742, "region": "София област", "locality": "гр.Драгоман", "buyer": "ОБЩИНА ДРАГОМАН", "supplier": "ГВ ИНЖЕНЕРИНГ ЕООД", "risk": 0.025, "expected_days": 49, "overrun_days": 0, "is_repair": 1}}, {"type": "Feature", "geometry": {"type": "Point", "coordinates": [24.64725, 42.0625]}, "properties": {"ocid": "ocds-e82gsb-426083", "title": "Рехабилитация на общински път PDV 1210/III-667/Първомай - Караджалово-граница общ. (Първомай-Димитровград)-Скобелево-Ста", "value": 5672640, "region": "Пловдив", "locality": "гр.Първомай", "buyer": "ОБЩИНА ПЪРВОМАЙ", "supplier": "ПАРСЕК ГРУП ЕООД", "risk": 0.033, "expected_days": 62, "overrun_days": 0, "is_repair": 1}}, {"type": "Feature", "geometry": {"type": "Point", "coordinates": [27.37625, 44.03225]}, "properties": {"ocid": "ocds-e82gsb-546066", "title": "„ДОСТАВКА НА ТРЪБИ И ФИТИНГИ, ПРЕДНАЗНАЧЕНИ ЗА ИЗГРАЖДАНЕ И РЕМОНТ НА ВОДОПРОВОДНИ МРЕЖИ ЗА ПИТЕЙНО-БИТОВО ВОДОСНАБДЯВАН", "value": 92000, "region": "Силистра", "locality": "гр. Силистра", "buyer": "ВОДОСНАБДЯВАНЕ И КАНАЛИЗАЦИЯ ООД", "supplier": "Стройснаб БГ ООД", "risk": 0.006, "expected_days": 21, "overrun_days": 0, "is_repair": 1}}, {"type": "Feature", "geometry": {"type": "Point", "coordinates": [24.3125, 42.0795]}, "properties": {"ocid": "ocds-e82gsb-551769", "title": "\"Доставка на горива за автопарка за нуждите на Община Свиленград за периода 2026-2027 г.”", "value": 270247, "region": "Пазарджик", "locality": "гр.Свиленград", "buyer": "ОБЩИНА СВИЛЕНГРАД", "supplier": "НИКИ - ПЕТ ОЙЛ ООД", "risk": 0.016, "expected_days": 21, "overrun_days": 0, "is_repair": 1}}, {"type": "Feature", "geometry": {"type": "Point", "coordinates": [26.00475, 43.72825]}, "properties": {"ocid": "ocds-e82gsb-542770", "title": "Зимно поддържане и снегопочистване на общинска пътна мрежа и улици в гр. Две могили и с. Чилнов за сезон 2025/2026 г. и ", "value": 74, "region": "Русе", "locality": "гр.Две могили", "buyer": "ОБЩИНА ДВЕ МОГИЛИ", "supplier": "Кооперация ЗЕМЕДЕЛСКА КООПЕРАЦИЯ ЗА ПРОИЗВОДСТВО И УСЛУГИ-ФИЛИП ТОТЮ - ДВЕ МОГИЛИ", "risk": 0.464, "expected_days": 49, "overrun_days": 0, "is_repair": 1}}, {"type": "Feature", "geometry": {"type": "Point", "coordinates": [25.515, 42.35575]}, "properties": {"ocid": "ocds-e82gsb-554025", "title": "„Закупуване на електрическо превозно средство, включително свързана зарядна станция за нуждите на Център за социална рех", "value": 39471, "region": "Стара Загора", "locality": "гр.Николаево", "buyer": "ОБЩИНА НИКОЛАЕВО", "supplier": "МОТО-ПФОЕ ЕООД", "risk": 0.028, "expected_days": 21, "overrun_days": 0, "is_repair": 1}}, {"type": "Feature", "geometry": {"type": "Point", "coordinates": [23.49325, 42.56025]}, "properties": {"ocid": "ocds-e82gsb-515626", "title": "Tекущ ремонт на общински сгради на територията на община Своге по обособени позиции", "value": 23331, "region": "София област", "locality": "гр.Своге", "buyer": "ОБЩИНА СВОГЕ", "supplier": "ДЕНИВЕГС ЕООД", "risk": 0.351, "expected_days": 62, "overrun_days": 0, "is_repair": 1}}, {"type": "Feature", "geometry": {"type": "Point", "coordinates": [27.8985, 43.21725]}, "properties": {"ocid": "ocds-e82gsb-454217", "title": "„Изграждане на водопроводна и канализационна мрежа, част юг, с. Разделна, общ. Белослав“ по две обособени позиции“ - Обо", "value": 176770, "region": "Варна", "locality": "гр.Белослав", "buyer": "ОБЩИНА БЕЛОСЛАВ", "supplier": "НАДИН-ЖЕЛЯЗКОВ ЕООД", "risk": 0.058, "expected_days": 62, "overrun_days": 0, "is_repair": 0}}, {"type": "Feature", "geometry": {"type": "Point", "coordinates": [23.356, 42.7015]}, "properties": {"ocid": "ocds-e82gsb-411810", "title": "Осигуряване на самолетни билети за превоз по въздух на пътници и багаж при служебни пътувания в страната и чужбина, обос", "value": 306775, "region": "София (столица)", "locality": "гр.София", "buyer": "ИЗПЪЛНИТЕЛНА АГЕНЦИЯ ЗА НАСЪРЧАВАНЕ НА МАЛКИТЕ И СРЕДНИТЕ ПРЕДПРИЯТИЯ", "supplier": "БЪЛГАРИЯ ЕЪР – ПОСОКА – КЕТИ", "risk": 0.194, "expected_days": 49, "overrun_days": 0, "is_repair": 1}}, {"type": "Feature", "geometry": {"type": "Point", "coordinates": [25.56475, 42.70575]}, "properties": {"ocid": "ocds-e82gsb-543796", "title": "Инженеринг (проектиране, строителство и авторски надзор) за обект: „Основен ремонт и/или рехабилитация на улици в с.Горн", "value": 283316, "region": "—", "locality": "гр.Велинград", "buyer": "ОБЩИНА ВЕЛИНГРАД", "supplier": "Делчев Инженеринг ООД", "risk": 0.034, "expected_days": 62, "overrun_days": 0, "is_repair": 1}}, {"type": "Feature", "geometry": {"type": "Point", "coordinates": [23.40575, 42.7615]}, "properties": {"ocid": "ocds-e82gsb-545202", "title": "Абонаментното техническо обслужване и програмно осигуряване на GPS и Поддръжане на софтуерния модул за обработка на пътн", "value": 33000, "region": "София (столица)", "locality": "гр. София", "buyer": "СТОЛИЧЕН ЕЛЕКТРОТРАНСПОРТ ЕАД", "supplier": "МУСАТ 2000 ЕООД", "risk": 0.08, "expected_days": 49, "overrun_days": 0, "is_repair": 1}}, {"type": "Feature", "geometry": {"type": "Point", "coordinates": [25.29675, 42.97525]}, "properties": {"ocid": "ocds-e82gsb-532268", "title": "Техническо обслужване и ремонт на трактори и селскостопански машини, собственост на „Северноцентрално държавно предприят", "value": 6135, "region": "Габрово", "locality": "Севлиево", "buyer": "ТЕРИТОРИАЛНО ПОДЕЛЕНИЕ ДЪРЖАВНО ЛОВНО СТОПАНСТВО РОСИЦА", "supplier": "МОНИ 9080 ЕООД", "risk": 0.035, "expected_days": 49, "overrun_days": 0, "is_repair": 1}}, {"type": "Feature", "geometry": {"type": "Point", "coordinates": [26.5795, 43.4145]}, "properties": {"ocid": "ocds-e82gsb-491573", "title": "„ИЗБОР НА ИЗПЪЛНИТЕЛ ЗА ИЗПЪЛНЕНИЕ НА СМР НА ОБЕКТ: „ПРЕУСТРОЙСТВО И ПРОМЯНА НА ПРЕДНАЗНАЧЕНИЕТО НА БИВША УЧИЛИЩНА СГРАД", "value": 473781, "region": "Разград", "locality": "гр.Исперих", "buyer": "ОБЩИНА ИСПЕРИХ", "supplier": "ДИ ЕС - 46 ЕООД", "risk": 0.92, "expected_days": 62, "overrun_days": 104, "is_repair": 0}}, {"type": "Feature", "geometry": {"type": "Point", "coordinates": [25.7, 43.16825]},